name,latitude,longitude,altitude_km,dist_from_equator,risk_level
CALSPHERE 1,-6.789613800118621,-74.57730707643667,1000.0045736770328,6.789613800118621,Low
CALSPHERE 2,-86.13878445285691,112.72433833416434,1081.9771953711459,86.13878445285691,High
LCS 1,13.281683691240264,46.90944822370926,2795.513372337238,13.281683691240264,Medium
TEMPSAT 1,78.01295478133805,-104.70063685286684,1183.9666563816713,78.01295478133805,High
CALSPHERE 4A,54.47634195020736,168.1131632666726,1082.5366248588784,54.47634195020736,High
OPS 5712 (P/L 160),-68.10415146659756,-155.197193077919,681.7757129475776,68.10415146659756,High
LES-5,0.6147527953438356,-48.387151670524155,33225.646369193935,0.6147527953438356,Low
SURCAL 159,60.044809364090064,165.20849173420788,911.7821742642,60.044809364090064,High
OPS 5712 (P/L 153),-26.082021463542265,-133.19237291193375,908.0634028100164,26.082021463542265,Medium
SURCAL 150B,-39.13036489212194,5.6699994876428725,500.15117401591107,39.13036489212194,Medium
OPS 3811 (DSP 2),0.42342488845359366,6.181126933302675,36318.70383244154,0.42342488845359366,Low
RIGIDSPHERE 2 (LCS 4),17.446902717527255,125.36468867186215,727.2902674241369,17.446902717527255,Medium
OSCAR 7 (AO-7),57.409279401853986,-172.64535952119306,1454.0024353432887,57.409279401853986,High
STARLETTE,10.08172430546216,-9.383311933062854,988.9805816520602,10.08172430546216,Medium
LAGEOS 1,-29.561800089933204,-97.97628732832236,5956.791592185935,29.561800089933204,Medium
OPS 8701 (DSP 10),-7.344179585118956,-52.38027329487985,36372.01751237771,7.344179585118956,Low
PHASE 3B (AO-10),-8.421861206103621,161.81197595545552,35075.436976456316,8.421861206103621,Low
UOSAT 2 (UO-11),-12.128009356174607,-12.888250950686103,610.1100698712794,12.128009356174607,Medium
AJISAI (EGS),-25.538082761525196,-126.8464434588771,1486.1389260828237,25.538082761525196,Medium
TDRS 3,-12.450377786931853,-48.72958231404914,35716.68872106265,12.450377786931853,Medium
COSMOS 1989 (ETALON 1),-61.197190801702995,68.30650057063296,19125.473592505223,61.197190801702995,High
COSMOS 2024 (ETALON 2),15.843051186495558,13.12864062184021,19170.48590479233,15.843051186495558,Medium
FLTSATCOM 8 (USA 46),12.54914043732482,125.5657807673514,35772.348682058444,12.54914043732482,Medium
LUSAT (LO-19),-54.42822815231401,-138.8254803412711,799.5381120955309,54.42822815231401,High
HST,-13.295910434933948,-12.800079695359734,492.5335309976742,13.295910434933948,Medium
SKYNET 4C,-0.2978706449933306,33.31794159690578,35783.625455852634,0.2978706449933306,Low
USA 65 (DSP 15),-14.239656977747906,-58.13143448558492,36346.188414770506,14.239656977747906,Medium
TDRS 5,6.267255074553438,-167.115703545981,35791.8802424334,6.267255074553438,Low
USA 75 (DSP 16),-1.3484658461547756,25.050411912894656,36099.271104882755,1.3484658461547756,Low
LAGEOS 2,52.531789277080286,-78.55349848094026,5731.221037508316,52.531789277080286,High
TDRS 6,-14.18445451900887,-45.5718278987907,35797.537113900216,14.18445451900887,Medium
SCD 1,-22.80572934474274,-83.56831433392892,745.5970130293523,22.80572934474274,Medium
UFO 2 (USA 95),-3.8410333895038185,28.95771885841707,35784.283076469146,3.8410333895038185,Low
STELLA,41.65860055188919,87.10005491760212,806.8859050193835,41.65860055188919,Medium
EYESAT A (AO-27),79.00835371312058,135.86261121937088,795.7213042605375,79.00835371312058,High
ITAMSAT (IO-26),-0.9200370419630182,-96.01968390688593,791.8274896196475,0.9200370419630182,Low
USA 99 (MILSTAR-1 1),-4.677124565481367,-90.64833940024921,35794.31200073306,4.677124565481367,Low
RADIO ROSTO (RS-15),-40.6691715178509,-155.00563189095854,2097.084869527077,40.6691715178509,Medium
UFO 4 (USA 108),8.748641674988054,172.51755050923418,35775.71264849756,8.748641674988054,Low
TDRS 7,11.203372795249656,88.20024309802223,35738.29950193574,11.203372795249656,Medium
USA 115 (MILSTAR-1 2),-2.711097303471222,-120.32743096243138,35796.041859396806,2.711097303471222,Low
POLAR,-40.8673894482784,-95.84264659785951,17514.611747466948,40.8673894482784,Medium
INMARSAT 3-F1,-2.1353061909713213,-75.4987965041818,35881.33636569224,2.1353061909713213,Low
USA 119,-61.83481748043732,18.06881782142771,1592.167874760304,61.83481748043732,High
JAS-2 (FO-29),30.39786842449136,91.29993010420814,881.4252321292857,30.39786842449136,Medium
INMARSAT 3-F2,8.319751776725683,166.73660092892763,35838.227389889405,8.319751776725683,Low
INMARSAT 3-F3,-5.304117869199096,61.66682909440154,35862.20831779179,5.304117869199096,Low
NAVSTAR 43 (USA 132),-50.848905177468694,98.95438585982586,20332.608826259955,50.848905177468694,High
FORTE,-42.141294581079705,17.823369931521697,828.2269196045766,42.141294581079705,Medium
AMC-3,0.2948421872477917,-71.97485833953024,35798.609459624524,0.2948421872477917,Low
USA 134,-0.2126467506230651,-112.40764212055718,35797.24829879424,0.2126467506230651,Low
ORBCOMM FM06,-23.158786051575348,-66.28936290026829,744.3459848836901,23.158786051575348,Medium
INMARSAT 3-F5,-4.0196515067835445,-54.27949047198419,35805.32260545601,4.0196515067835445,Low
ORBCOMM FM04,29.866639659621722,153.9009712972249,798.6319965983006,29.866639659621722,Medium
CELESTIS-02 & TAURUS R/B,50.83498146957962,-41.847966433851845,781.800621089249,50.83498146957962,High
NOAA 15,-69.2081666971656,-109.30579494188873,826.3121276935552,69.2081666971656,High
TECHSAT 1B (GO-32),-8.47456634696004,0.17267327264513588,814.5112789701549,8.47456634696004,Low
ORBCOMM FM19,-14.030189435864484,-117.10292752847805,767.2796606436161,14.030189435864484,Medium
ORBCOMM FM20,-26.2307417373171,110.84463776206717,772.770733081701,26.2307417373171,Medium
ORBCOMM FM27,20.895279199616635,145.52491740303248,763.4794813711327,20.895279199616635,Medium
SCD 2,-21.35247455133848,-162.11796270090176,755.519816770582,21.35247455133848,Medium
ISS (ZARYA),25.90483995294145,-173.41644462086748,417.00215814458033,25.90483995294145,Medium
SWAS,-12.075921000380845,-26.443311829004244,551.573584854746,12.075921000380845,Medium
SKYNET 4E,-9.64355507046718,-0.639545527238329,35793.73321754465,9.64355507046718,Low
DLR-TUBSAT,12.977468637997408,179.37509768797247,711.5980322832391,12.977468637997408,Medium
CXO,35.97223865950503,-46.40281507941675,142805.49143148304,35.97223865950503,Medium
ABS-6,0.017096178627757298,158.99848672787147,35772.86471173197,0.017096178627757298,Low
NAVSTAR 46 (USA 145),-31.769823269176637,-156.91327443210776,20033.843604231537,31.769823269176637,Medium
UFO 10 (USA 146),-9.692893552855065,-23.07734540160022,35792.43208999825,9.692893552855065,Low
ORBCOMM FM32,20.098871443644796,-158.73786920192134,767.0470453028292,20.098871443644796,Medium
XMM-NEWTON,-48.35281758750157,179.54764049231554,89064.80188333179,48.35281758750157,Medium
TERRA,33.56554322812575,85.95896155315468,696.3332812230377,33.56554322812575,Medium
USA 148,2.5023083740934693,89.96804100617186,36038.74686531373,2.5023083740934693,Low
ASIASTAR,0.12620202157199661,104.99660525764658,35767.65155368431,0.12620202157199661,Low
IMAGE,9.242011421542598,172.57627349125275,38596.94716526135,9.242011421542598,Low
USA 149 (DSP 20),8.594567370948363,-164.60216979779202,35781.83980512061,8.594567370948363,Low
NAVSTAR 47 (USA 150),14.896599366692849,87.37964703167066,20262.62712853987,14.896599366692849,Medium
TDRS 8,8.296360536078959,119.35222439329608,35912.13247287833,8.296360536078959,Low
NAVSTAR 48 (USA 151),-30.41713081615277,116.5009466521283,20129.088897549067,30.41713081615277,Medium
CLUSTER II-FM7 (SAMBA),35.90461744309019,-28.473284297548823,58469.80227682908,35.90461744309019,Medium
INTELSAT 9 (IS-9),-4.552853571110269,66.56663483772275,35775.43646800209,4.552853571110269,Low
CLUSTER II-FM5 (RUMBA),23.04773476413712,-9.452612700411441,117284.5775760044,23.04773476413712,Medium
CLUSTER II-FM8 (TANGO),15.473554304977794,30.64806201634169,97259.75534298814,15.473554304977794,Medium
NSS-11,0.8705141177841521,176.01653117576092,35778.07183876219,0.8705141177841521,Low
USA 153,8.86672116105675,133.91808119635152,35781.79915485346,8.86672116105675,Low
AMC-6,0.0623422748286995,-134.98486819143415,35783.51802518044,0.0623422748286995,Low
NAVSTAR 49 (USA 154),27.52571466364505,-49.096979599729295,20380.09512084641,27.52571466364505,Medium
ODIN,-64.98595702966401,29.699478416693786,475.17939738795246,64.98595702966401,High
USA 157 (MILSTAR-2 2),6.283479352445129,-149.79699483702004,35647.702699016976,6.283479352445129,Low
BSAT-2A,-5.166838162476383,-56.05289124321618,36088.6057895425,5.166838162476383,Low
INTELSAT 10 (IS-10),-5.156005380893719,66.34235294047086,35773.09331756553,5.156005380893719,Low
OMNI-M1,-35.63943143493377,-32.3465256974332,10590.247933075132,35.63943143493377,Medium
USA 159 (DSP 21),-11.663473494756493,-49.668756854799604,35783.96683407253,11.663473494756493,Medium
INTELSAT 902 (IS-902),-1.031029063537449,-50.2406217576288,35804.82566327668,1.031029063537449,Low
PCSAT (NO-44),45.51200780335432,-163.46255781577545,795.1402040191041,45.51200780335432,Medium
PROBA-1,25.566880849452783,-170.0734638610281,548.3639295806147,25.566880849452783,Medium
TIMED,-72.28274533597897,-169.74557204597522,611.0111209952516,72.28274533597897,High
MAROC-TUBSAT,12.365310239253732,5.565317953547917,986.0714558504956,12.365310239253732,Medium
COSMOS 2385,9.381749528145773,141.89967670319874,1417.5547546491232,9.381749528145773,Low
COSMOS 2386,2.842342016469123,-45.14197165605754,1418.6828189098783,2.842342016469123,Low
USA 164 (MILSTAR-2 3),-8.003089192617352,18.48091412073828,35549.915716409894,8.003089192617352,Low
INTELSAT 904 (IS-904),-3.418803220949871,-29.647949128317492,35796.38385646127,3.418803220949871,Low
AQUA,-81.23629172227213,-91.18195003669994,718.6820603965956,81.23629172227213,High
DIRECTV 5 (TEMPO 1),3.087695700488134,-110.02420665868765,35794.14287261654,3.087695700488134,Low
INTELSAT 905 (IS-905),5.5774090744894,-137.0910433844991,35789.049853289165,5.5774090744894,Low
GALAXY 3C (G-3C),1.7491402244225722,-94.77815108362569,35788.05817458117,1.7491402244225722,Low
COSMOS 2390,38.17627143749394,74.49133772218369,1508.1740047954527,38.17627143749394,Medium
COSMOS 2391,-5.7276772911364136,-103.6509477515941,1469.0909149708516,5.7276772911364136,Low
INTELSAT 906 (IS-906),-3.993833441623448,64.19670991666513,35777.68211131608,3.993833441623448,Low
TDRS 10,-6.494467485413675,-48.31039203239273,35763.80858327831,6.494467485413675,Low
LATINSAT B,-58.31060051044578,-134.67651049128432,669.1920153281703,58.31060051044578,High
SAUDISAT 1C (SO-50),62.476376418381804,-1.2205626872432216,657.5137198369438,62.476376418381804,High
LATINSAT A,-50.43960265598869,-63.8199496594459,620.0137602089999,50.43960265598869,High
NIMIQ 2,4.54373160340411,-108.89016017430428,35804.06016735344,4.54373160340411,Low
CORIOLIS,22.11731896790701,33.56467613395729,821.9358387017887,22.11731896790701,Medium
SORCE,-34.38879609726254,-147.14835521840354,566.2395097327086,34.38879609726254,Medium
NAVSTAR 51 (USA 166),-2.9600916291693466,-90.03747721808796,19956.193086547733,2.9600916291693466,Low
USA 167,5.182309225747921,-121.35165472081822,35795.13054435502,5.182309225747921,Low
NAVSTAR 52 (USA 168),-14.373711176128072,-151.81116097176823,26260.91670697521,14.373711176128072,Medium
USA 169 (MILSTAR-2 4),11.554090953172818,152.95680140364797,35620.09636075915,11.554090953172818,Medium
ASIASAT 4,1.5978012211130257,147.5218917503154,35777.90949514733,1.5978012211130257,Low
HELLAS-SAT 2,-5.303584756776774,-10.20371924713752,35796.33367086363,5.303584756776774,Low
THURAYA-2,-4.31553843228822,44.226256858538626,35757.632560286256,4.31553843228822,Low
OPTUS C1,3.8124938829314146,155.60189431285372,35765.5781562831,3.8124938829314146,Low
MOST,10.655887869887275,-151.31475501451828,826.929021045234,10.655887869887275,Medium
CUTE-1 (CO-55),-69.33007546089382,6.959769432559205,835.4437374131988,69.33007546089382,High
CUBESAT XI-IV (CO-57),23.71678364154034,34.511903720255575,812.2815261119827,23.71678364154034,Medium
GALAXY 23 (G-23),2.1144841922326756,-125.8389760802933,35850.513972490575,2.1144841922326756,Low
SCISAT 1,-23.33236778530908,-132.78412124712997,629.8053509157107,23.33236778530908,Medium
COSMOS 2400,0.6340821594734674,-113.94725001530519,1502.33018853561,0.6340821594734674,Low
COSMOS 2401,69.6329086704028,41.75827803883839,1480.6086037954926,69.6329086704028,High
USA 170,-9.091538175553403,24.501778148182076,35787.811707785964,9.091538175553403,Low
MOZHAYETS 4 (RS-22),-81.35393942927715,85.07527120784926,683.9826200961854,81.35393942927715,High
LARETS,-20.29036444130076,-4.054832376591821,695.8388592439214,20.29036444130076,Medium
GALAXY 13 (HORIZONS-1),0.4363673720276665,-149.98801057700587,35787.72440131911,0.4363673720276665,Low
IRS-P6 (RESOURCESAT-1),-52.17703236363925,-98.15602999332137,779.6204626016774,52.17703236363925,High
DMSP 5D-3 F16 (USA 172),56.72169004723604,52.14358130706815,848.0422312001676,56.72169004723604,High
CHUANGXIN 1 (CX-1),65.75869619027245,-67.55891732996682,746.4604374055231,65.75869619027245,High
YAMAL 202,3.889473791415936,163.39123570226798,35775.71982605089,3.889473791415936,Low
UFO 11 (USA 174),-0.3020159165354244,75.63695016863583,35780.37725844474,0.3020159165354244,Low
NAVSTAR 53 (USA 175),-5.145071470520261,-97.00077902017298,20907.31117093945,5.145071470520261,Low
USA 176 (DSP 22),11.385887743786562,150.42645743071017,35561.9148442465,11.385887743786562,Medium
ABS-4 (MOBISAT-1),-4.30000707368921,61.08750260535,35774.48177816792,4.30000707368921,Low
EUTELSAT 7A,4.769705450424839,-139.1434917796722,35782.87744122817,4.769705450424839,Low
NAVSTAR 54 (USA 177),19.258303906663922,138.89257438319092,19902.458833417968,19.258303906663922,Medium
SHIYAN-1 (SY-1),30.602987256537332,78.17397689448264,500.30664860798953,30.602987256537332,Medium
AMC-11,-0.019955743753321254,-111.07875328175898,35794.78308480826,0.019955743753321254,Low
INTELSAT 10-02,-0.021496429328118783,-1.000062490658247,35787.36793564764,0.021496429328118783,Low
NAVSTAR 55 (USA 178),-22.40234254604844,127.03311561029635,19871.576234505865,22.40234254604844,Medium
APRIZESAT 2,-3.9252840382198175,25.72925799231799,730.6627834495237,3.9252840382198175,Low
SAUDICOMSAT 1,81.33999745757887,117.9574327778183,698.8714470201762,81.33999745757887,High
SAUDICOMSAT 2,-7.376221454576402,-159.65931116112608,702.3117151996339,7.376221454576402,Low
SAUDISAT 2,34.62966954170499,14.255661982038339,723.1385578666983,34.62966954170499,Medium
APRIZESAT 1,-80.85497312990474,-51.41933667558771,732.7750044870747,80.85497312990474,High
AURA,-74.86665161921734,-60.259820223948935,720.228552746955,74.86665161921734,High
ANIK F2,1.9481523725051917,-111.04803611314345,35802.31176051449,1.9481523725051917,Low
COSMOS 2407,-68.75893777320218,14.884414179767534,996.0379972400051,68.75893777320218,High
SHIJIAN-6 01A (SJ-6 01A),12.967094767151693,-137.1414639365871,529.9255441638547,12.967094767151693,Medium
SHIJIAN-6 01B (SJ-6 01B),76.20752299447435,73.20515865842185,571.0794784326159,76.20752299447435,High
COSMOS 2408,-45.194827401901435,-125.82805897982378,1493.0822336342385,45.194827401901435,Medium
COSMOS 2409,-68.3459282382626,84.14233558933893,1517.3323898171695,68.3459282382626,High
AMC-15,-0.004399506222162772,-105.0296803367217,35795.76890080286,0.004399506222162772,Low
JB-3 3 (ZY 2C),36.25712643689842,1.4097963812490149,506.91671574629163,36.25712643689842,Medium
NAVSTAR 56 (USA 180),-27.76634974883273,-136.52826397329184,20176.37238026446,27.76634974883273,Medium
SWIFT,18.233657826478122,-146.8978316177312,451.56618435626103,18.233657826478122,Medium
NANOSAT-1,-6.553378278717149,145.49890282448018,638.8070314376184,6.553378278717149,Low
COSMOS 2414,-18.82205543417562,5.601767767949073,917.7098968872527,18.82205543417562,Medium
NSS-10,-2.3819985780305983,-37.56774391530678,35797.85200189987,2.3819985780305983,Low
XTAR-EUR,-3.3604080667165093,28.930874250174497,35784.297654044945,3.3604080667165093,Low
XM-3 (RHYTHM),-0.01804244040370416,-86.3553113545478,35786.38580641726,0.01804244040370416,Low
INMARSAT 4-F1,4.690929089687061,178.16020086888662,35777.93384776511,4.690929089687061,Low
IRS-P5 (CARTOSAT-1),-68.21533149608548,37.62234539668355,625.0994834016054,68.21533149608548,High
NOAA 18,-23.71452453097755,97.98622117252927,853.1030815278818,23.71452453097755,Medium
DIRECTV 8,-0.02204511622871548,-119.01155259935777,35792.288485328856,0.02204511622871548,Low
GALAXY 28 (G-28),1.3006056364728722,-88.65042954462284,35791.63674541147,1.3006056364728722,Low
SJ-7,64.5749642203313,55.2286957878822,539.5240525250456,64.5749642203313,High
THAICOM 4,0.03851639904387747,119.49236850018883,35774.52793617095,0.03851639904387747,Low
REIMEI (INDEX),12.866156812967231,-55.67062427243886,548.646696564609,12.866156812967231,Medium
ANIK F1R,2.579626000075084,-107.21855958668773,35796.29128883747,2.579626000075084,Low
NAVSTAR 57 (USA 183),0.243992985506487,150.25072544092413,20302.333655000813,0.243992985506487,Low
SYRACUSE 3A,-3.6272770176916005,21.74230058119322,35786.46068153607,3.6272770176916005,Low
BEIJING 1,60.42944773599919,-44.9315500179784,686.0950642890474,60.42944773599919,High
SINAH 1,44.454078225716074,158.9035337207773,693.8003589125557,44.454078225716074,Medium
CUBESAT XI-V,-59.898862176468796,1.1518631094198006,671.6876048242171,59.898862176468796,High
INMARSAT 4-F2,3.9252653176056005,143.41533200660095,35775.528104745805,3.9252653176056005,Low
COSMOS 2416,-82.49468906502823,141.3588374589394,1464.8225659520776,82.49468906502823,High
METEOSAT-9 (MSG-2),-6.901335089291911,45.98509887817592,35781.21508821345,6.901335089291911,Low
EUTELSAT 174A,2.544484838618478,174.02062491681522,35769.81904605536,2.544484838618478,Low
ECHOSTAR 10,-0.025803250617182458,-110.18953246809448,35795.87924199711,0.025803250617182458,Low
SPAINSAT,0.002885450019843729,-30.004245396895982,35797.1468109284,0.002885450019843729,Low
EUTELSAT HOTBIRD 13E,0.08440263579047746,-53.085313565920906,36344.06750152037,0.08440263579047746,Low
JCSAT-5A,0.023584788272276704,132.05226977782416,35777.01671918485,0.023584788272276704,Low
ASTRA 1KR,0.06267464054094496,19.167435700015925,35789.216307553885,0.06267464054094496,Low
EROS B,55.9653879711195,146.4815706483661,454.6004988484541,55.9653879711195,High
EWS-G1 (GOES 13),3.110834183543255,-118.0772723169902,36425.428640285965,3.110834183543255,Low
RESURS-DK 1,14.984518480223308,80.13311080577016,532.370959231646,14.984518480223308,Medium
GALAXY 16 (G-16),0.008923503189878133,-98.98599758287031,35795.17718407237,0.008923503189878133,Low
GENESIS 1,36.307529342430236,-152.7392945971441,296.78913554612467,36.307529342430236,Medium
ARIRANG-2 (KOMPSAT-2),28.61728992565057,35.610406652589795,691.1093266865078,28.61728992565057,Medium
EUTELSAT HOTBIRD 13B,-0.685646672628259,33.05774715440575,35785.07094125498,0.685646672628259,Low
JCSAT-3A,0.02464562373661917,127.99416072408039,35775.814737302906,0.02464562373661917,Low
SYRACUSE 3B,-1.6223076337954023,3.2709025136674224,35790.91048324282,1.6223076337954023,Low
KOREASAT 5 (MUGUNGWHA 5),-0.2220002706354796,113.04288497611233,35780.066667026076,0.2220002706354796,Low
HINODE (SOLAR-B),61.12161431771195,53.65647742932818,676.4980663915084,61.12161431771195,High
NAVSTAR 58 (USA 190),54.064175231105025,-73.94542200083183,19966.412159581305,54.064175231105025,High
DIRECTV 9S,1.0761878645198941,-101.16214058337991,35795.903756819294,1.0761878645198941,Low
OPTUS D1,0.9074491950750357,151.97900109921483,35770.72964869972,0.9074491950750357,Low
SHIJIAN-6 02A (SJ-6 02A),-54.188675975678294,-113.18910398061648,552.1018423670106,54.188675975678294,High
SHIJIAN-6 02B (SJ-6 02B),-54.588831938468644,39.03665602105967,586.3409368326921,54.588831938468644,High
DMSP 5D-3 F17 (USA 191),75.63963076956463,68.29634708129727,851.2623394117518,75.63963076956463,High
BADR-4,-1.017334265469004,26.193183033784685,35781.32142922046,1.017334265469004,Low
NAVSTAR 59 (USA 192),36.1428917666314,60.37525801610606,20031.366659596602,36.1428917666314,Medium
WILDBLUE-1,1.5536677952827553,-111.158306916897,35791.18067678293,1.5536677952827553,Low
LAPAN-TUBSAT,-29.508602436189513,4.319484230468214,627.1662610695254,29.508602436189513,Medium
THEMIS A,-2.792038265442878,116.50795113413864,70352.50607139373,2.792038265442878,Low
SKYNET 5A,-1.835915341142976,95.2592727266712,35772.92322294313,1.835915341142976,Low
THEMIS D,-0.8908003209403635,118.04587652142209,66966.84192963995,0.8908003209403635,Low
THEMIS E,0.10562521061496483,121.31363392872078,70489.26740549096,0.10562521061496483,Low
ANIK F3,0.197355599535111,-118.68204933507494,35791.28889895474,0.197355599535111,Low
HAIYANG-1B,-36.61980447327178,-159.24494020031008,804.0795863912983,36.61980447327178,Medium
SAUDISAT 3,73.27604335640768,120.6982087469574,671.2763348443086,73.27604335640768,High
SAUDICOMSAT 7,-81.43640468342188,-119.53961003909062,666.3331402201001,81.43640468342188,High
SAUDICOMSAT 6,81.64862638937186,74.8926593512381,660.6302874862223,81.64862638937186,High
SAUDICOMSAT 5,-47.96591431241397,-23.150196592049006,655.3864287700942,47.96591431241397,Medium
SAUDICOMSAT 3,0.05397530372990749,166.7198153267306,689.2361256070325,0.05397530372990749,Low
SAUDICOMSAT 4,28.649310580446308,159.1892143659433,651.7622286994826,28.649310580446308,Medium
ASTRA 1L,-0.3454427915270098,19.34135271600677,35787.51857158831,0.3454427915270098,Low
GALAXY 17 (G-17),1.0471366938245057,-84.95309570012844,35792.52616689485,1.0471366938245057,Low
YAOGAN-2,39.30788334697764,-128.31686322065065,630.8524255361375,39.30788334697764,Medium
GLOBALSTAR M069,51.18587148387993,-14.642346704535298,1583.0555357477942,51.18587148387993,High
GLOBALSTAR M072,-44.288474817185254,-75.1003180217726,1733.7082292130176,44.288474817185254,Medium
COSMO-SKYMED 1,81.3194389718622,-88.67531119332087,607.3694241563445,81.3194389718622,High
TERRASAR-X,-70.08441530058288,-128.53613684424755,535.6518151504965,70.08441530058288,High
GENESIS 2,42.3260344791859,-104.26992457690274,354.1411155379601,42.3260344791859,Medium
COSMOS 2428,-69.00938126224635,-16.630151098636375,871.0263265034322,69.00938126224635,High
ZHONGXING-6B,-0.34538683422650074,113.43711055128188,35776.51389487298,0.34538683422650074,Low
DIRECTV 10,-0.020710739973599117,-102.80058192395363,35786.201994612595,0.020710739973599117,Low
WORLDVIEW-1 (WV-1),-39.63790999916441,-31.25507531171088,510.6891530415811,39.63790999916441,Medium
OPTUS D2,0.5928861762902713,160.4711261497712,35776.567394158556,0.5928861762902713,Low
INTELSAT 11 (IS-11),-0.9429207137592274,-33.64635843216198,36142.493132250216,0.9429207137592274,Low
WGS F1 (USA 195),-0.023399011317062787,-42.52783896618122,35787.76655124371,0.023399011317062787,Low
NAVSTAR 60 (USA 196),-53.81754959362314,51.54025813558771,20620.05240737369,53.81754959362314,High
GLOBALSTAR M066,-16.267044879609934,77.75737097126454,1532.19551975809,16.267044879609934,Medium
COSMOS 2433 [GLONASS-M],-51.27719886610263,-135.21556735175767,19145.382872406026,51.27719886610263,High
COSMOS 2432 [GLONASS-M],-3.5086376749739108,-167.61079162340857,19149.132963472053,3.5086376749739108,Low
SAR-LUPE 3,-9.471530564637282,-10.929218726309527,374.72685415833314,9.471530564637282,Low
YAOGAN-3,13.07329142136436,-131.20313462150142,603.9845805418925,13.07329142136436,Medium
SKYNET 5B,-4.288288808100806,25.05158637115196,35786.43979096274,4.288288808100806,Low
ASTRA 4A,-0.020263928853349333,4.769229236535473,35790.5490370822,0.020263928853349333,Low
COSMO-SKYMED 2,6.255056478795193,25.549551586736865,624.88670835403,6.255056478795193,Low
RADARSAT-2,18.110948696802584,-153.15866528916436,793.872238509664,18.110948696802584,Medium
NAVSTAR 61 (USA 199),31.59581931155707,-3.5467215319668988,20223.363742993955,31.59581931155707,Medium
HORIZONS-2,0.5708963323141393,-73.77328593823903,35794.70868185074,0.5708963323141393,Low
COSMOS 2434 [GLONASS-M],43.64083212720249,39.47921408452358,19136.037306837752,43.64083212720249,Medium
COSMOS 2436 [GLONASS-M],-63.65831204779952,142.66198377324042,19154.08123603044,63.65831204779952,High
THURAYA-3,1.9908223655547002,98.40193305865692,35776.38092601028,1.9908223655547002,Low
THOR 5,0.02163070581303968,-0.773313734626937,35791.33706358086,0.02163070581303968,Low
AMC-14,-17.69455735890928,20.291206296586108,35683.08649526684,17.69455735890928,Medium
NAVSTAR 62 (USA 201),-21.61413857174101,-169.38205338546217,20176.359480890646,21.61413857174101,Medium
DIRECTV 11,0.005955054426958623,-99.20707285077498,35786.423033935425,0.005955054426958623,Low
ICO G1,-0.7844628877007046,-92.87654256545254,35793.54115646019,0.7844628877007046,Low
VINASAT-1,0.03255687874774423,131.9503133424886,35779.22494463506,0.03255687874774423,Low
STAR ONE C2,0.026974601829457566,-64.98787609453365,35799.059491796026,0.026974601829457566,Low
CARTOSAT-2A,-71.43802708335465,53.80121330768691,652.925606816292,71.43802708335465,High
CUTE-1.7+APD II (CO-65),33.57901419601025,-1.2604470841880708,554.7213417546235,33.57901419601025,Medium
CANX-2,-15.462950577882562,174.31713551523785,574.2375488845323,15.462950577882562,Medium
SEEDS II (CO-66),-53.76802579873548,-166.95468250088967,533.6945098043944,53.76802579873548,High
AMOS-3,-0.04069396973916097,-4.109391297450291,35785.848207311035,0.04069396973916097,Low
GALAXY 18 (G-18),-0.024552413061257692,-122.98499752725259,35791.044971728654,0.024552413061257692,Low
YUBILEINY (RS-30),26.989424286585123,-86.50550732970329,1481.777138618224,26.989424286585123,Medium
COSMOS 2437,29.688971483360028,87.28596479787882,1496.8509561133747,29.688971483360028,Medium
COSMOS 2438,54.96294936952542,-82.04227257751374,1484.68944559869,54.96294936952542,High
COSMOS 2439,-23.987885448982425,95.21749559912182,1517.4336403580762,23.987885448982425,Medium
FENGYUN 3A,-34.04888203125557,152.01056427672307,846.202457889589,34.04888203125557,Medium
ZHONGXING-9,0.037812083821539666,92.15305594460618,35772.73181029508,0.037812083821539666,Low
FGRST (GLAST),-24.947385470106894,-123.88713136394324,502.01343487120755,24.947385470106894,Medium
SKYNET 5C,-1.7770734822815912,-17.886139119562273,35802.64342920898,1.7770734822815912,Low
TURKSAT 3A,-0.060517248412791366,41.91944295267828,35781.744552000186,0.060517248412791366,Low
INTELSAT 25 (IS-25),-0.6515854524063514,-31.559925247411027,35800.90740741511,0.6515854524063514,Low
ECHOSTAR 11,0.010106958696302381,-109.98989965635235,35795.17433310863,0.010106958696302381,Low
SUPERBIRD-C2,0.3964932062337983,143.94291643919595,35784.384309563415,0.3964932062337983,Low
AMC-21,1.8734586133719682,-124.85182808073147,35790.92287622822,1.8734586133719682,Low
INMARSAT 4-F3,-0.7046128337606874,-98.0115142367821,35794.42125070754,0.7046128337606874,Low
HUANJING 1A (HJ-1A),9.884761845758778,20.053005491938247,628.2715529600379,9.884761845758778,Low
HUANJING 1B (HJ-1B),12.00260545348756,-158.77444936106386,605.7302306677489,12.00260545348756,Medium
GEOEYE 1,11.287857979633912,-85.5539350454673,682.4858559226974,11.287857979633912,Medium
NIMIQ 4,-0.01573186799838115,-81.99754482621167,35794.42932698725,0.01573186799838115,Low
GALAXY 19 (G-19),-0.00697109291663176,-96.98313021986017,35796.13094172835,0.00697109291663176,Low
THEOS,-55.34535776403584,-81.70617205980825,847.1068007575166,55.34535776403584,High
SHIJIAN-6 03A (SJ-6 03A),-59.93416691726445,-127.8769573314607,553.956321132135,59.93416691726445,High
SHIJIAN-6 03B (SJ-6 03B),-57.793549900224036,-136.17497833867188,580.1893908832396,57.793549900224036,High
COSMO-SKYMED 3,73.15678905161533,-103.28678982602236,556.5402537263217,73.15678905161533,High
SHIYAN-3 (SY-3),-1.4809119323492088,-132.86976562901148,801.3779576461461,1.4809119323492088,Low
CHUANGXIN 1-02 (CX-1-02),-36.94224104938073,-126.77651446367842,816.1044419153469,36.94224104938073,Medium
ASTRA 1M,-0.009629082986406473,19.15192527613233,35800.45270473809,0.009629082986406473,Low
YAOGAN-4,42.23524963009181,127.46370977232945,638.0818303499397,42.23524963009181,Medium
EUTELSAT HOTBIRD 13C,-1.335366412484388,-12.547452685573939,35795.04438449884,1.335366412484388,Low
GOSAT (IBUKI),-81.97229587668843,41.29582151441006,698.4237071103128,81.97229587668843,High
STARS (KUKAI),-80.27905904719887,-104.43300129367431,617.8406527730136,80.27905904719887,High
KKS-1 (KISEKI),-75.56885928310871,-99.00711801877432,657.9896694330577,75.56885928310871,High
NOAA 19,8.782630700834286,88.49936313113193,859.4625476225087,8.782630700834286,Low
EXPRESS-AM44,-1.7434138991461916,-11.062267812269246,35796.94999471983,1.7434138991461916,Low
NSS-9,0.2528427709597763,-176.91562144311933,35783.12511618782,0.2528427709597763,Low
TELSTAR 11N,-0.0012848944241831701,-37.553086526332486,35795.710399851574,0.0012848944241831701,Low
NAVSTAR 63 (USA 203),33.012754758525055,-64.66030705266358,19837.282780809914,33.012754758525055,Medium
WGS F2 (USA 204),0.024797628323858328,57.5148890513451,35786.452273168055,0.024797628323858328,Low
YAOGAN-6,47.69578304994182,12.362039488385511,234.15697087786202,47.69578304994182,Medium
SES-7 (PROTOSTAR 2),0.020170539227022624,108.24138790334062,35784.51154098092,0.020170539227022624,Low
MEASAT-3A,0.028058432361242988,160.03202914051988,35775.68421272111,0.028058432361242988,Low
GOES 14,0.5888365458313551,-108.29874226512203,35782.89339710143,0.5888365458313551,Low
FM-5,-0.03423095852444126,-86.1498355686182,35787.398584603405,0.03423095852444126,Low
TERRESTAR-1,1.8044106322926836,-110.92017452122244,35795.205332861115,1.8044106322926836,Low
COSMOS 2451,-82.08005684168997,-103.34858801378164,1527.4523573912447,82.08005684168997,High
COSMOS 2453,-48.737289195735876,-169.54215588257495,1514.5919340975317,48.737289195735876,Medium
DEIMOS-1,-24.738306124243927,-171.6232135366887,656.5301462748101,24.738306124243927,Medium
DUBAISAT-1,58.06060464292645,169.11590515703392,654.4866573535193,58.06060464292645,High
UK-DMC 2,-2.3554147093033895,162.63164839843253,648.2217489946362,2.3554147093033895,Low
APRIZESAT 4,-65.73401914602489,66.05721194992171,673.8903456151062,65.73401914602489,High
NANOSAT 1B,-81.34476706587637,57.23820485124526,597.7924263542403,81.34476706587637,High
APRIZESAT 3,-59.481680568679494,140.48577373295788,566.6292744832264,59.481680568679494,High
ASIASAT 5,-0.0014208026247164976,100.51193387112716,35782.65733548463,0.0014208026247164976,Low
NAVSTAR 64 (USA 206),-12.195287794908563,76.01486264370833,20189.68410419696,12.195287794908563,Medium
JCSAT-12 (JCSAT-RA),0.02291346934516982,132.04535643051534,35787.02817417634,0.02291346934516982,Low
OPTUS D3,0.45404753035020046,156.14892228610444,35780.413914772485,0.45404753035020046,Low
NIMIQ 5,-0.034500068175135866,-72.6992494363715,35798.00803333201,0.034500068175135866,Low
OCEANSAT-2,-49.09107789671092,-128.59221636408313,917.5941898871586,49.09107789671092,Medium
SWISSCUBE,77.78559153765407,55.70647821637406,705.1596699934995,77.78559153765407,High
BEESAT-1,-36.34664724545743,-87.23739095668915,705.2459681529077,36.34664724545743,Medium
ITUPSAT1,49.72640645978327,-71.45023501128041,707.2447768804078,49.72640645978327,Medium
AMAZONAS 2,0.14420108689041777,-60.791300869109705,35800.819750978466,0.14420108689041777,Low
COMSATBW-1,0.03597866430285021,62.99907854344211,35782.36328338771,0.03597866430285021,Low
WORLDVIEW-2 (WV-2),-77.04204463187392,55.98355287659229,793.3355393781904,77.04204463187392,High
DMSP 5D-3 F18 (USA 210),77.91543569600535,133.59206476125087,862.7407342651119,77.91543569600535,High
NSS-12,-0.03279533968020321,56.96493039333739,35773.618656398045,0.03279533968020321,Low
THOR 6,-0.016561719659479716,-0.8777883764077845,35793.37405637815,0.016561719659479716,Low
SMOS,9.271479612924853,-148.45458895753117,761.4403351436506,9.271479612924853,Low
PROBA-2,25.004529670664922,22.291029609752318,705.5518716944717,25.004529670664922,Medium
SJ-11-01,-46.48584621814858,1.6067284487566378,704.400685330453,46.48584621814858,Medium
COSMOS 2455,58.06502436164202,164.55564482284376,915.8465556763316,58.06502436164202,High
INTELSAT 14 (IS-14),-0.029163660822236825,-44.99505219167529,35796.57098298984,0.029163660822236825,Low
EUTELSAT 36B,0.027073743028156058,50.42023626605532,35776.38108997821,0.027073743028156058,Low
INTELSAT 15 (IS-15),0.013256006301050364,85.13116178173604,35778.09284431009,0.013256006301050364,Low
WGS F3 (USA 211),-0.16516101926671892,85.99018474380009,35787.15045366207,0.16516101926671892,Low
YAOGAN-7,-35.678454475739784,-101.16959770900806,641.5249960097084,35.678454475739784,Medium
COSMOS 2456 [GLONASS-M],-60.50049972266693,69.87778160697069,19142.067908014928,60.50049972266693,High
COSMOS 2457 [GLONASS-M],49.28079748383645,158.88869591211304,19136.44365464566,49.28079748383645,Medium
YAOGAN-8,44.70918925440477,90.59673267553674,1235.7424987819024,44.70918925440477,Medium
XIWANG-1 (HOPE-1),20.680261541690047,154.25524655115854,1195.0324237559057,20.680261541690047,Medium
DIRECTV 12,0.014824319474319923,-102.71741960925664,35788.34791117872,0.014824319474319923,Low
BEIDOU-2 G1,2.1072337479113217,140.41927071102245,35784.82448059661,2.1072337479113217,Low
SDO,27.559199305374417,-96.69096282481516,35786.60716547161,27.559199305374417,Medium
INTELSAT 16 (IS-16),-0.03227342043260771,-76.186299218135,35795.11366620719,0.03227342043260771,Low
COSMOS 2460 [GLONASS-M],47.15130455557088,38.49596945438415,19131.731214555475,47.15130455557088,Medium
EWS-G2 (GOES 15),-0.2650415083843774,61.36776117608474,35794.48132037741,0.2650415083843774,Low
YAOGAN-9 01A,59.04939108062714,48.98118252164687,1063.4733032591535,59.04939108062714,High
YAOGAN-9 01B,-8.45685503324004,109.14849342911434,1464.807698593885,8.45685503324004,Low
YAOGAN-9 01C,-13.680492426338487,112.41146711177564,1470.8803312246155,13.680492426338487,Medium
ECHOSTAR 14,-0.035726558175551565,-118.88834364881914,35790.29583207552,0.035726558175551565,Low
CRYOSAT 2,62.51834221671323,-134.41718545714284,728.6420726554002,62.51834221671323,High
SES-1,-0.042591320727379416,-100.98003996206172,35795.108586034425,0.042591320727379416,Low
COSMOS 2463,8.471965210875267,24.982247895239176,993.9065458970634,8.471965210875267,Low
ASTRA 3B,-0.4755908509907767,23.433057642678012,35786.92244816908,0.4755908509907767,Low
COMSATBW-2,-0.07855888401935562,13.197154070616772,35789.97623681765,0.07855888401935562,Low
NAVSTAR 65 (USA 213),50.58728767923538,25.212245790882154,19956.797026071687,50.58728767923538,High
BEIDOU-2 G3,-1.5249276322215977,79.53778419347276,35751.247117704006,1.5249276322215977,Low
BADR-5,-0.03598625235740486,25.932076166864167,35797.813417188874,0.03598625235740486,Low
SJ-12,14.621195146989605,29.32476074946247,535.3392339141902,14.621195146989605,Medium
TANDEM-X,-70.08569854318672,-128.53132868540092,535.8030164548004,70.08569854318672,High
COMS 1,0.4194197981635848,128.114558291264,35781.58899929373,0.4194197981635848,Low
ARABSAT-5A,-0.04563586170001794,30.42752689521157,35789.8651448489,0.04563586170001794,Low
ECHOSTAR 15,-0.015632970094209896,-89.64156645428713,35836.55220870556,0.015632970094209896,Low
CARTOSAT-2B,62.957983849779495,-118.33883641341369,644.7154482595487,62.957983849779495,High
ALSAT 2A,64.5269562888326,-160.91033194629856,659.3159614311375,64.5269562888326,High
TISAT 1,-18.207854602294343,-66.22333024697932,524.0188302783068,18.207854602294343,Medium
BEIDOU-2 IGSO-1,-52.88558913335694,100.69613436565145,35646.443743396376,52.88558913335694,High
NILESAT 201,0.0028365406343998202,-7.03270277787423,35801.2645622454,0.0028365406343998202,Low
RASCOM-QAF 1R,-0.008490318782000248,2.815392444119731,35799.42604786202,0.008490318782000248,Low
YAOGAN-10,-26.660220408009547,-132.53847913444903,626.5349266829959,26.660220408009547,Medium
AEHF-1 (USA 214),-7.263702191702024,29.915430158534082,35787.2616668079,7.263702191702024,Low
COSMOS 2467,60.875362965970766,-5.735634194638585,1504.8501468088368,60.875362965970766,High
STRELA 3,58.24647654520165,160.70911191234623,1508.7747244531668,58.24647654520165,High
COSMOS 2468,50.11719424907985,148.9480419510738,1497.422314178643,50.11719424907985,High
YAOGAN-11,-23.579864193511803,-138.59261189459477,657.5343654486551,23.579864193511803,Medium
ZHEDA PIXING 1B,-49.91224769174055,-176.10952472428593,627.7299724284238,49.91224769174055,Medium
ZHEDA PIXING 1C,-46.46815652857145,-175.03991825290055,627.1688068265288,46.46815652857145,Medium
SBSS (USA 216),-57.14053345544528,-116.69665957423511,610.3395377782014,57.14053345544528,High
SHIJIAN-6 04A (SJ-6 04A),17.70175171581351,-153.46107135941693,522.9424191941408,17.70175171581351,Medium
SHIJIAN-6 04B (SJ-6 04B),36.201559184124896,-166.34068230377852,575.2484487681361,36.201559184124896,Medium
XM-5,-0.05273092700768753,-115.21241993950382,35782.588295764035,0.05273092700768753,Low
GLOBALSTAR M079,3.17987515974189,-151.0878091661009,1413.9018326342564,3.17987515974189,Low
GLOBALSTAR M074,-44.80481832526639,76.31284115954156,1428.8659644024551,44.80481832526639,Medium
GLOBALSTAR M076,41.15779184546037,-16.877645302301897,1417.5891134498902,41.15779184546037,Medium
GLOBALSTAR M077,-2.761819906993466,-15.066300224663598,1414.9294752362443,2.761819906993466,Low
GLOBALSTAR M075,44.86742048918456,-61.08671804741018,1418.1835552197147,44.86742048918456,Medium
GLOBALSTAR M073,44.69260035364741,-147.72970443148023,1417.9665617473106,44.69260035364741,Medium
BSAT-3B,0.022779145736622444,109.83907616070115,35786.82457322034,0.022779145736622444,Low
BEIDOU-2 G4,2.017166282061869,159.96287670460288,35799.04724332726,2.017166282061869,Low
FENGYUN 3B,3.204169926428853,-119.7234971669929,860.7621519765072,3.204169926428853,Low
COSMO-SKYMED 4,-60.286346061906414,40.38886110898019,646.6440450360196,60.286346061906414,High
SKYTERRA 1,1.0406528503234527,-101.2964332121241,35795.47416658635,1.0406528503234527,Low
O/OREOS (USA 219),21.165997685578258,-106.76137829552734,587.6630478731928,21.165997685578258,Medium
HYLAS 1,4.18006383918456,-123.26957428072497,35791.24825062222,4.18006383918456,Low
INTELSAT 17 (IS-17),0.03402458304800252,65.96726831938744,35781.066242866145,0.03402458304800252,Low
BEIDOU-2 IGSO-2,23.964767176040798,115.3126432638066,35700.61811285466,23.964767176040798,Medium
EUTELSAT KA-SAT 9A,0.017965254039358978,8.991946964409175,35806.54974776317,0.017965254039358978,Low
HISPASAT 30W-5,-0.026196146706884395,-29.997483661238757,35807.84863450762,0.026196146706884395,Low
KOREASAT 6,0.028769897998558027,159.888216286497,35779.10525169972,0.028769897998558027,Low
BEIDOU-2 IGSO-3,19.319704432452735,96.73312115521253,35905.00944443602,19.319704432452735,Medium
RESOURCESAT-2,-13.940483414325612,84.33634999472909,821.8759860315188,13.940483414325612,Medium
YOUTHSAT,67.65087700258432,168.57663538855368,814.6019310160593,67.65087700258432,High
X-SAT,4.172397568553302,13.752883100657519,820.9258161007498,4.172397568553302,Low
INTELSAT 28 (IS-28),-0.28540920675106124,-31.71513110881364,35800.47881895416,0.28540920675106124,Low
YAHSAT 1A,0.02124632618061171,52.45739009880066,35783.0250550949,0.02124632618061171,Low
SBIRS GEO-1 (USA 230),-2.5162113135535398,51.83561078557831,35781.67848823775,2.5162113135535398,Low
TELSTAR 14R,-0.020493897291460856,-63.001314485502874,35799.09351741051,0.020493897291460856,Low
GSAT-8,-1.1038780242323134,55.0891464588221,35783.51405052095,1.1038780242323134,Low
ST-2,0.011892813434750541,87.99680060752476,35780.07403483041,0.011892813434750541,Low
ZHONGXING-10,-0.0027741331424036156,110.42330248283103,35780.38069634559,0.0027741331424036156,Low
SJ-11-03,17.252420091935495,173.7865415981156,685.7841019984234,17.252420091935495,Medium
GLOBALSTAR M083,1.8839462761526158,112.21431124037849,1413.915303923074,1.8839462761526158,Low
GLOBALSTAR M088,41.44166445154034,152.95460349866988,1416.7711217847516,41.44166445154034,Medium
GLOBALSTAR M091,44.83064841118002,30.395686438444358,1418.0234757190872,44.83064841118002,Medium
GLOBALSTAR M085,41.102322851878895,68.10029572151143,1416.977448559813,41.102322851878895,Medium
GLOBALSTAR M081,1.8859979103867193,-64.91598025560577,1414.3636834404801,1.8859979103867193,Low
GLOBALSTAR M089,-3.1349210382802557,70.28561789024229,1414.8103157599217,3.1349210382802557,Low
SES-3,0.2603288229890363,-102.98720235904284,35796.6655724219,0.2603288229890363,Low
KAZSAT-2,0.03159362489784365,86.49425294638478,35786.34218175235,0.03159362489784365,Low
NAVSTAR 66 (USA 232),4.231523161485026,-154.02962698987596,20328.457885001728,4.231523161485026,Low
BEIDOU-2 IGSO-4,-47.0648540960609,81.19207683965087,35208.8753919887,47.0648540960609,Medium
SJ-11-02,-62.81028181271248,101.64388364985928,701.1842928960195,62.81028181271248,High
ASTRA 1N,-0.024609023729148347,19.117067551944235,35781.45055781811,0.024609023729148347,Low
BSAT-3C (JCSAT-110R),0.03571807834546041,109.95013422586976,35785.52451702101,0.03571807834546041,Low
PAKSAT-1R,-0.0049495003585375875,37.92124402503439,35785.81102289941,0.0049495003585375875,Low
HAIYANG-2A,59.81229272397462,42.52219087580732,977.5785173877493,59.81229272397462,High
NIGERIASAT-2,-53.08327240302203,-161.35442114747804,675.4699139780266,53.08327240302203,High
NIGERIASAT-X,12.827947094768822,23.157206281261445,694.7761356177438,12.827947094768822,Medium
RASAT,25.953544163038995,-69.49614817863933,671.9648105749349,25.953544163038995,Medium
APRIZESAT 5,61.60901632870932,-43.88314023573347,602.0028296917402,61.60901632870932,High
APRIZESAT 6,35.6931564284034,-73.9654506139147,628.2280989213635,35.6931564284034,Medium
SES-2,-0.031180063695635828,-86.98647025622485,35796.96556338655,0.031180063695635828,Low
ARABSAT-5C,-0.04170075355241686,19.973734319938547,35795.83847726792,0.04170075355241686,Low
EUTELSAT 7 WEST A,-0.0824216264275461,-7.343619071614297,35799.56483157275,0.0824216264275461,Low
TACSAT 4,33.91526381138077,-142.7340320922144,7806.451102263032,33.91526381138077,Medium
QUETZSAT 1,-0.027871583701881832,-76.98548363171157,35798.336054684136,0.027871583701881832,Low
INTELSAT 18 (IS-18),-0.0021103804792695384,-179.97676908453153,35781.894068207366,0.0021103804792695384,Low
EUTELSAT 16A,-0.04651704498141856,15.930782600330703,35792.30297261777,0.04651704498141856,Low
JUGNU,-17.82599376914619,34.86689529985988,836.1524677669364,17.82599376914619,Medium
SRMSAT,10.428063516191793,-130.4599690726094,843.8601999422224,10.428063516191793,Medium
VIASAT-1,-0.03609412131401743,-115.08389320456693,35791.8916436808,0.03609412131401743,Low
GSAT0101 (GALILEO-PFM),-44.86268351842228,-105.82851875820437,23247.638645449562,44.86268351842228,Medium
GSAT0102 (GALILEO-FM2),-55.09886485971121,-33.8373112659123,23241.74893354161,55.09886485971121,High
SUOMI NPP,-63.26851607061463,-56.03976053519,851.559025590398,63.26851607061463,High
COSMOS 2476 [GLONASS-M],-14.299335565297913,-45.48760062348031,19091.69220548053,14.299335565297913,Medium
COSMOS 2477 [GLONASS-M],14.507166945718394,134.68977776562681,19165.591414603685,14.507166945718394,Medium
COSMOS 2475 [GLONASS-M],-24.430190454046794,115.66078710722003,19123.517509195306,24.430190454046794,Medium
YAOGAN-12,44.208836484469,80.29695305958586,493.5789117281737,44.208836484469,Medium
CHUANGXIN 1-03 (CX-1-03),28.323325785456884,39.25368221448641,783.4049565863278,28.323325785456884,Medium
SHIYAN-4 (SY-4),29.975206325303063,40.771934053263706,775.7625662537774,29.975206325303063,Medium
ASIASAT 7,-0.012127507818659086,105.50903018510175,35778.65600569702,0.012127507818659086,Low
BEIDOU-2 IGSO-5,32.0714641039151,104.58934119599681,35739.64231853139,32.0714641039151,Medium
LUCH-5A,5.562064654506964,166.65990324514846,35773.78209854326,5.562064654506964,Low
SSOT,29.915145255375684,90.25278154942022,625.9601382628481,29.915145255375684,Medium
PLEIADES 1A,-26.351395780560587,93.77002309211124,707.8690627388181,26.351395780560587,Medium
NIGCOMSAT 1R,-0.009904117525953642,42.5046827874521,35783.20239440301,0.009904117525953642,Low
ZIYUAN 1-02C (ZY 1-02C),-54.72212462429859,-76.30051003830178,784.2878411562914,54.72212462429859,High
GLOBALSTAR M084,41.531163502212245,-108.3866405905435,1417.3313310804374,41.531163502212245,Medium
GLOBALSTAR M080,-48.94756559382474,-0.09917259407772015,1430.993785480405,48.94756559382474,Medium
GLOBALSTAR M082,-2.596976795867217,-105.80369821672085,1414.5229006882212,2.596976795867217,Low
GLOBALSTAR M092,-41.417590736152356,119.26544773848062,1427.3731782386365,41.417590736152356,Medium
GLOBALSTAR M090,45.23386579636766,117.5825047157942,1417.7835819364775,45.23386579636766,Medium
GLOBALSTAR M086,-40.700585688221715,24.560688950475,1426.6316032145344,40.700585688221715,Medium
ZIYUAN 3-1 (ZY 3-1),76.72167526536214,119.16915939961021,422.48910623107275,76.72167526536214,High
WGS F4 (USA 233),0.03266661424597206,88.4434071275147,35789.27621739107,0.03266661424597206,Low
LARES,-5.153814259521608,73.56043139694616,1452.7801139983947,5.153814259521608,Low
SES-4,-0.030722274999509844,-22.01771996922775,35794.15114208093,0.030722274999509844,Low
BEIDOU-2 G5,-2.142233651137733,58.854834248119175,35758.85771375409,2.142233651137733,Low
MUOS-1,0.7097369007368983,-99.80623123170075,36026.867890582005,0.7097369007368983,Low
INTELSAT 22 (IS-22),0.007217404656598804,72.10600279346082,35780.601430551505,0.007217404656598804,Low
APSTAR-7,-0.001593888053718551,76.46345466647215,35778.18130040029,0.001593888053718551,Low
YAHSAT 1B,-0.018569317628312158,47.56015179781304,35787.11031733389,0.018569317628312158,Low
BEIDOU-2 M3,51.96757635287116,120.44039930830253,21589.300371633428,51.96757635287116,High
BEIDOU-2 M4,21.29797136495545,163.6412345527062,21542.416730144698,21.29797136495545,Medium
AEHF-2 (USA 235),-5.093118890417181,-16.615934210748783,35795.96538798439,5.093118890417181,Low
TIANHUI 1-02,-50.370287406841875,31.82125091682027,394.3545163366842,50.370287406841875,High
YAOGAN-14,39.392142210710105,-20.938262935128716,496.8000087147815,39.392142210710105,Medium
JCSAT-13,0.037718482271500826,123.99572942959513,35774.677524490064,0.037718482271500826,Low
VINASAT-2,0.0364857199317489,131.8494357534806,35775.87341745236,0.0364857199317489,Low
GCOM-W1 (SHIZUKU),69.01672772477559,-14.742441164472902,713.5129036716354,69.01672772477559,High
ARIRANG-3 (KOMPSAT-3),-68.18809178451565,-45.31907003032658,708.8989755398086,68.18809178451565,High
SDS-4,20.90517391898287,-72.07871116427485,643.8116363705005,20.90517391898287,Medium
NIMIQ 6,-0.019679469944949318,-91.09831741731881,35796.556070758794,0.019679469944949318,Low
ZHONGXING-2A,-0.24683923743845015,98.21949423677614,35783.70762552244,0.24683923743845015,Low
YAOGAN-15,-72.13133504661715,178.96040689733564,1235.9226082183957,72.13133504661715,High
INTELSAT 19 (IS-19),0.02109411621341829,166.0269693154604,35776.48619322095,0.02109411621341829,Low
NUSTAR,2.7466929236536544,10.463262496875293,548.2292662396677,2.7466929236536544,Low
ECHOSTAR 17,-0.03641677719997565,-107.10034069882533,35791.88948352544,0.03641677719997565,Low
METEOSAT-10 (MSG-3),-3.6849626982976824,0.044018914047531166,35788.19920547441,3.6849626982976824,Low
SES-5,0.0018284192094528014,4.9520677434802565,35788.69511462024,0.0018284192094528014,Low
EXACTVIEW-1 (ADS-1B),14.942751149294963,-55.36939878090381,818.0588573632162,14.942751149294963,Medium
MKA-PN 1,69.46259262163747,-78.0811837515322,819.4225166403794,69.46259262163747,High
COSMOS 2481,44.2773219954844,162.6424334280058,1489.8841040703746,44.2773219954844,Medium
GONETS-M 3,4.96667470965507,-18.680553932960407,1500.149686615428,4.96667470965507,Low
GONETS-M 4,81.0694711675286,109.3604779796924,1491.1615564214057,81.0694711675286,High
INTELSAT 20 (IS-20),0.0010714813540662865,68.48542314489009,35791.479693207315,0.0010714813540662865,Low
HYLAS 2,0.4876179839600305,-72.5391577564642,35791.935984134056,0.4876179839600305,Low
EXPRESS-MD2,-33.86884752934034,58.33539404375689,508.93398473087996,33.86884752934034,Medium
INTELSAT 21 (IS-21),-0.020906853303272604,-57.996367492980646,35795.02912302637,0.020906853303272604,Low
SPOT 6,58.390239838058,103.78536616111484,706.8814520243304,58.390239838058,High
SMDC ONE 1.2,20.041502070453458,161.72003266221844,583.0867275612242,20.041502070453458,Medium
CINEMA,31.766965324610602,98.4558435003837,540.1653886755068,31.766965324610602,Medium
SMDC ONE 1.1,-1.7744298024913725,-163.91309846451847,358.4703253930783,1.7744298024913725,Low
AEROCUBE 4.5A,13.409360096395867,82.55671747959587,490.4049600038233,13.409360096395867,Medium
METOP-B,-77.55989261573004,33.7809643959153,848.9615926499827,77.55989261573004,High
BEIDOU-2 M6,-9.598795642475489,111.01791785834286,21490.954095666235,9.598795642475489,Low
ASTRA 2F,0.0471143400576185,28.174439212225156,35790.39527554855,0.0471143400576185,Low
GSAT-10,0.04442230016526007,82.91974815736901,35764.121374587805,0.04442230016526007,Low
VRSS-1,39.69520216038347,-172.22555811821965,625.9370375206577,39.69520216038347,Medium
NAVSTAR 67 (USA 239),-20.462308821351847,37.10298150763946,20545.95116622718,20.462308821351847,Medium
GSAT0103 (GALILEO-FM3),-26.494856500774297,-6.051540497984321,23226.99968592407,26.494856500774297,Medium
SJ-9A,-48.04938459658329,-4.2536650317425755,653.2713709193287,48.04938459658329,Medium
SJ-9B,17.10106549195439,18.79535777325507,611.8000214864423,17.10106549195439,Medium
INTELSAT 23 (IS-23),-0.01950377056741704,-52.986045924152215,35786.709770836125,0.01950377056741704,Low
BEIDOU-2 G6,-2.0002253808361896,84.08506905926602,35744.068771451486,2.0002253808361896,Low
LUCH-5B,-8.994421534658121,-16.48292599925833,35796.00108763997,8.994421534658121,Low
YAMAL 300K,0.02120759012631333,-177.06388882941994,35783.026510970056,0.02120759012631333,Low
STAR ONE C3,-0.017630617032371013,-74.97523102228996,35795.06432556628,0.017630617032371013,Low
EUTELSAT 21B,-0.03868595063929847,21.55600820028889,35787.15119983051,0.03868595063929847,Low
ECHOSTAR 16,-0.0417004237973755,-61.49630322541446,35795.12017159037,0.0417004237973755,Low
YAOGAN-16 01A,48.58170152495193,-110.41140892533569,837.8222568259655,48.58170152495193,Medium
YAOGAN-16 01B,32.68487372060909,-125.98643611598074,797.0968329887395,32.68487372060909,Medium
YAOGAN-16 01C,43.58794165907251,-116.84317675812535,822.1177970272845,43.58794165907251,Medium
ZHONGXING-12,-0.005621432969913746,87.47208559720266,35775.95151561637,0.005621432969913746,Low
PLEIADES 1B,27.932037580517427,-86.56871687903454,701.0380972674375,27.932037580517427,Medium
EUTELSAT 70B,0.034178720618501045,70.45712192857657,35774.987843680596,0.034178720618501045,Low
YAMAL 402,-0.2818399650199765,54.85313494595536,35777.762883243966,0.2818399650199765,Low
GOKTURK 2,-58.126137799014785,65.55978337634504,668.9705172878728,58.126137799014785,High
SKYNET 5D,0.02627464450189806,52.726662134278655,35781.71736633952,0.02627464450189806,Low
MEXSAT 3,0.004055011265488931,-114.78335452159283,35791.331372444925,0.004055011265488931,Low
COSMOS 2482,3.0544219800596477,-45.71160710409485,1485.3220510974209,3.0544219800596477,Low
COSMOS 2483,-71.19003405392237,-27.730274012406984,1527.8651827481472,71.19003405392237,High
COSMOS 2484,42.21748222946602,-50.73215775583684,1479.4792713495194,42.21748222946602,Medium
TDRS 11,2.6197060486777457,-174.2098382880111,35788.27152516296,2.6197060486777457,Low
GLOBALSTAR M097,-3.0737219496748573,163.474329486927,1414.4652839547728,3.0737219496748573,Low
GLOBALSTAR M093,-41.0601099262686,-68.26486612542178,1427.6398766492546,41.0601099262686,Medium
GLOBALSTAR M094,-41.16847874226979,-154.06984911172677,1427.2446178695511,41.16847874226979,Medium
GLOBALSTAR M096,-45.12749966058856,168.6054346020691,1428.8016585008195,45.12749966058856,Medium
GLOBALSTAR M078,3.2187878511387082,24.307744689436703,1414.6365912458261,3.2187878511387082,Low
GLOBALSTAR M095,-45.406866818224984,-108.89987676525332,1429.2560776580772,45.406866818224984,Medium
AMAZONAS 3,0.012585167616499403,-60.98345850845615,35793.69456990645,0.012585167616499403,Low
AZERSPACE 1,-0.011054280296220942,45.973736078725146,35785.36959957057,0.011054280296220942,Low
LANDSAT 8,81.81545152282256,-178.40836676793205,715.0251643146753,81.81545152282256,High
SARAL,-52.11787219156848,-162.3350987785608,803.3391557337324,52.11787219156848,High
SAPPHIRE,3.6763376694741288,25.452976061879962,776.4049591700738,3.6763376694741288,Low
NEOSSAT,77.76319802240373,-16.099760892379788,792.7969683205694,77.76319802240373,High
STRAND-1,-68.68572263156604,-174.9547273844307,789.6843365988682,68.68572263156604,High
BRITE-AUSTRIA,-41.940658452789144,-161.20918660382253,782.8999960605436,41.940658452789144,Medium
SBIRS GEO-2 (USA 241),-2.2281618961884346,-49.86965989621054,35794.04489121222,2.2281618961884346,Low
EUTELSAT 117 WEST A,-0.008599050261891197,-116.77603999833623,35792.19031686356,0.008599050261891197,Low
ANIK G1,-0.0017608028905819872,-107.31433045315481,35791.12015912362,0.0017608028905819872,Low
GAOFEN-1,18.033165953605863,98.71963785378661,651.1061182068003,18.033165953605863,Medium
NEE-01 PEGASO,-76.91914695287939,8.624460956926871,615.9736095662468,76.91914695287939,High
COSMOS 2485 [GLONASS-M],-53.7197843140587,-12.756161519578523,19091.02068166199,53.7197843140587,High
ZHONGXING-11,0.03464210733489841,97.91722711644155,35778.475523419234,0.03464210733489841,Low
PROBA-V,-39.2522535329104,-157.8663727305424,832.09105377333,39.2522535329104,Medium
VNREDSAT 1,55.48809835446999,-107.59941581062164,685.8271525084892,55.48809835446999,High
EUTELSAT 7B,-0.046640982899543874,6.927299383574572,35780.76562753887,0.046640982899543874,Low
NAVSTAR 68 (USA 242),-44.42123064550222,-77.24286517941965,20296.060774814945,44.42123064550222,Medium
WGS F5 (USA 243),-0.040249207068613714,-52.49891468715846,35786.839605691486,0.040249207068613714,Low
SES-6,-0.03812352119289366,-40.50304595347338,35796.970438925855,0.03812352119289366,Low
COSMOS 2486,63.87621242469368,17.022730073806315,708.9935081815623,63.87621242469368,High
O3B FM5,-0.03402700881871491,-105.36671432821635,8051.620306443223,0.03402700881871491,Low
O3B FM4,-0.004100993359681157,48.26529159363601,8063.102088776459,0.004100993359681157,Low
O3B FM2,-0.05166112044695989,-70.8326118255098,8068.265372975548,0.05166112044695989,Low
O3B PFM,-0.02326047936194681,-116.87192019502383,8066.537182905856,0.02326047936194681,Low
IRIS,15.711283467460149,-140.05220291161476,609.8710736516351,15.711283467460149,Medium
IRNSS-1A,-28.45583058859572,60.60522731693319,35832.47902598657,28.45583058859572,Medium
SJ-11-05,-22.367072722151107,23.376046766208052,681.3352304077081,22.367072722151107,Medium
MUOS-2,4.254801562300427,-177.5764514305501,35755.9982879895,4.254801562300427,Low
SHIYAN-7 (SY-7),-74.35641161300107,-126.87367718478971,679.0669078425653,74.35641161300107,High
CHUANGXIN-3 (CX-3),-9.668311385903484,23.434985839725606,653.3235351161516,9.668311385903484,Low
SHIJIAN-15 (SJ-15),1.5581684007011551,-157.83581029588157,662.6032058506969,1.5581684007011551,Low
ALPHASAT,-1.094571849956769,24.8085167856185,35785.173712872995,1.094571849956769,Low
INSAT-3D,0.017710824366310215,129.50612061676773,35778.66742902125,0.017710824366310215,Low
WGS F6 (USA 244),-0.015104932521300012,-135.19232938973929,35785.84947955146,0.015104932521300012,Low
ARIRANG-5 (KOMPSAT-5),-68.71138303286278,-170.6538696205227,579.7493272958156,68.71138303286278,High
ES'HAIL 1,-0.004783460135957181,25.443080945089925,35786.6468549599,0.004783460135957181,Low
GSAT-7,-0.021237695765596008,74.00476588161781,35788.59351026532,0.021237695765596008,Low
AMOS-4,-0.031947131195829634,64.9927198800679,35776.637992065735,0.031947131195829634,Low
YAOGAN-17 01A,-12.89387423485262,-159.14208906183634,1386.1698008862538,12.89387423485262,Medium
YAOGAN-17 01B,15.106515110499112,22.57345763062237,798.770352658679,15.106515110499112,Medium
YAOGAN-17 01C,31.223991348630342,176.08801769829,1293.3850883258883,31.223991348630342,Medium
GONETS-M 5,-13.324370637974514,-103.64682547716396,1490.642441129352,13.324370637974514,Medium
GONETS-M 6,-66.78289449190235,-118.81204524128289,1510.2762043822397,66.78289449190235,High
GONETS-M 7,63.6698638776614,65.48850245572379,1517.281866339391,63.6698638776614,High
HISAKI (SPRINT-A),5.787742172081694,8.803398478957606,1125.9898845852297,5.787742172081694,Low
AEHF-3 (USA 246),3.681008010592791,-124.94068930824538,35580.4496365204,3.681008010592791,Low
FENGYUN 3C,66.66546626123929,169.36603992858988,844.057361953076,66.66546626123929,High
CASSIOPE,69.6772479605584,-142.72017350017475,797.717341227017,69.6772479605584,High
POPACS 1,8.98322319903887,-51.74825754252496,609.363489151821,8.98322319903887,Low
POPACS 2,-42.473648850151136,-119.9421781677863,340.9646716146583,42.473648850151136,Medium
POPACS 3,80.62334491989114,60.905880804491666,368.88723592060273,80.62334491989114,High
ASTRA 2E,0.022504954346959146,28.48697477134474,35787.69156681796,0.022504954346959146,Low
SHIJIAN-16 (SJ-16),43.05544170294593,-169.75906132874178,597.5545743674251,43.05544170294593,Medium
FM-6,-0.005049947056960563,-116.16120669288352,35779.841439650205,0.005049947056960563,Low
RADUGA-1M 3,-4.983141209163936,35.02299799105135,35778.18286090973,4.983141209163936,Low
YAOGAN-19,56.24356136464984,26.593171081682236,1212.298120025105,56.24356136464984,High
APRIZESAT 7,-71.02122102884073,-45.478624386229946,635.893334131691,71.02122102884073,High
ZACUBE-1 (TSHEPISOSAT),-78.015089808121,-60.38345759140538,633.6604841643465,78.015089808121,High
SKYSAT-A,77.69579543221268,-138.33409830334296,545.7377368533911,77.69579543221268,High
DUBAISAT-2,45.03618550047965,-168.47412777220248,561.5519193579785,45.03618550047965,Medium
OPTOS,-75.88852245455362,-130.58491541398075,736.0561977777955,75.88852245455362,High
STSAT-3,-30.287426164452878,-8.864037482927273,567.1267131708244,30.287426164452878,Medium
WNISAT-1,-77.66313738449104,52.137117609299864,650.2492613736256,77.66313738449104,High
APRIZESAT 8,1.279423561743677,151.3633475322807,601.2813487447363,1.279423561743677,Low
TRITON-1,-0.2379123023478968,-63.846054197588494,701.0859403385709,0.2379123023478968,Low
GOMX-1,66.73668631789587,-100.71899646695,664.5146834167433,66.73668631789587,High
FIRST-MOVE,-80.72276698805653,-127.4200825295259,505.627441741745,80.72276698805653,High
CUBEBUG-2 (LO-74),38.87541653642412,-26.687768378507023,570.1110728487652,38.87541653642412,Medium
NEE-02 KRYSAOR,-73.14404469196093,167.69760381454705,629.5091605191333,73.14404469196093,High
FUNCUBE-1 (AO-73),73.25852494755533,11.181882205775633,563.5573245377652,73.25852494755533,High
UWE-3,6.185976990678123,-25.823492310326966,568.9656018135462,6.185976990678123,Low
SWARM B,8.244912528428397,137.91238075190248,491.7740815733245,8.244912528428397,Low
SWARM A,-16.145806769420133,-124.92988147968518,446.56867193272774,16.145806769420133,Medium
SWARM C,-15.741526131433423,-126.31869149816079,446.4488878316187,15.741526131433423,Medium
SHIYAN-5 (SY-5),22.91298610314684,83.26061391013496,740.3263045199159,22.91298610314684,Medium
SES-8,0.03515990692495831,94.9866457630812,35774.953113514835,0.03515990692495831,Low
ALICE,47.655745509207065,-127.03662503138328,691.9655379636065,47.655745509207065,Medium
SMDC ONE 2.4,46.50418941520431,8.694254741344393,534.0172102918599,46.50418941520431,Medium
MCUBED-2,59.451266667542725,55.80229376838534,481.10794385474514,59.451266667542725,High
TACSAT 6,52.027616459557485,-2.4605039602454153,536.3434415990744,52.027616459557485,High
SMDC ONE 2.3,-31.374205422794702,152.31871092542988,430.15470553412746,31.374205422794702,Medium
INMARSAT 5-F1,0.02051000275605902,62.61318626151121,35784.235032688695,0.02051000275605902,Low
TKSAT-1 (TUPAC KATARI),0.01757540209117989,-87.1841238472528,35799.70202648057,0.01757540209117989,Low
COSMOS 2488,-31.38308042750761,78.80149911993306,1517.7387758489142,31.38308042750761,Medium
COSMOS 2489,82.38831494322051,-174.37010307179324,1509.4309402016338,82.38831494322051,High
COSMOS 2490,-40.146469979852846,-90.75605517187911,1494.3804960485668,40.146469979852846,Medium
EXPRESS-AM5,0.02359065762432201,140.0227835221927,35785.97368206093,0.02359065762432201,Low
COSMOS 2493 (SKRL-756 1),-0.0031216983281086475,-52.486719592536545,567.9709996379461,0.0031216983281086475,Low
COSMOS 2494 (SKRL-756 2),-49.14588767348612,127.1682996729418,593.1131552179122,49.14588767348612,Medium
GSAT-14,0.038948864452550504,74.03473360499146,35783.25095702728,0.038948864452550504,Low
THAICOM 6,-0.05154648910614072,78.46089920844045,35783.70109217399,0.05154648910614072,Low
TDRS 12,-3.680956627225164,-40.985570289690706,35780.446712412435,3.680956627225164,Low
ABS-2,0.0026999930205514446,74.89039608157697,35775.12115600114,0.0026999930205514446,Low
ATHENA-FIDUS,-0.023962210652490355,37.77508334261804,35785.83044364541,0.023962210652490355,Low
TURKSAT 4A,0.06715868582657344,41.99494505574492,35779.547532502256,0.06715868582657344,Low
NAVSTAR 69 (USA 248),-42.87349575418521,163.62090473907614,20146.904180882233,42.87349575418521,Medium
GPM-CORE,-49.68614778079512,126.6901929158966,441.47344594177326,49.68614778079512,Medium
EXPRESS-AT1,0.016908344440787888,56.007189503287144,35783.47047107873,0.016908344440787888,Low
EXPRESS-AT2,0.03876463931809383,139.83697540702792,35786.39203905263,0.03876463931809383,Low
AMAZONAS 4A,0.012924933977930573,-74.00088544832656,35798.70960036625,0.012924933977930573,Low
ASTRA 5B,0.03683106298285583,23.46468242141798,35785.616430159265,0.03683106298285583,Low
COSMOS 2492 [GLONASS-M],-64.99562409359818,-68.5601834141307,19136.77632033564,64.99562409359818,High
SJ-11-06,36.45892600998439,63.54762452786413,688.7346864442103,36.45892600998439,Medium
SENTINEL-1A,5.077061790551157,31.0704855628958,698.189107212132,5.077061790551157,Low
IRNSS-1B,23.312380833732014,58.63722501055578,35740.72653430182,23.312380833732014,Medium
LUCH-5V,-1.4665683012396449,94.79748745905803,35780.722280563874,1.4665683012396449,Low
KAZSAT-3,0.022568356814888894,58.50723159736551,35785.097112001466,0.022568356814888894,Low
KAZEOSAT 1,43.742104145318734,106.33320424918139,757.5043192938019,43.742104145318734,Medium
NAVSTAR 70 (USA 251),55.265119114317486,136.74165914616333,20260.352297358535,55.265119114317486,High
COSMOS 2496,35.80054368647103,30.06499276246807,1510.0496142852442,35.80054368647103,Medium
COSMOS 2497,25.5655376724913,-157.47470361993155,1481.5986877805992,25.5655376724913,Medium
COSMOS 2498,56.7815724668861,-166.83082999400162,1491.1771285044033,56.7815724668861,High
ALOS-2,58.661227806555075,133.05608264564557,639.9026475640072,58.661227806555075,High
UNIFORM 1,-82.23196744039186,27.391383784748633,620.1265371830074,82.23196744039186,High
SOCRATES,-58.77622105699428,116.01920554702353,614.0211032096702,58.77622105699428,High
RISING 2,23.19558499444977,-89.93020290821923,590.1696580351635,23.19558499444977,Medium
EUTELSAT 3B,-0.057219157094917525,3.0593205332531936,35795.25047640309,0.057219157094917525,Low
COSMOS 2500 [GLONASS-M],34.552937225680466,170.2721460362052,19120.179138920914,34.552937225680466,Medium
KAZEOSAT 2,-36.429026049562175,61.75698970435938,634.3912346301702,36.429026049562175,Medium
HODOYOSHI-4,78.52050316555349,-0.009386367857599968,604.3423626384315,78.52050316555349,High
UNISAT-6,54.84853509172851,-170.32377328114234,622.0141507394076,54.84853509172851,High
DEIMOS-2,-48.33827084007227,-104.39615173173341,611.3378733881798,48.33827084007227,Medium
BUGSAT-1 (TITA),67.94295915377188,109.33918283857584,548.0819091389379,67.94295915377188,High
HODOYOSHI-3,21.03768049142296,13.688707351520263,631.2992548849719,21.03768049142296,Medium
SAUDISAT 4,-53.392117914968495,8.290087699335027,659.5553105730522,53.392117914968495,High
APRIZESAT 9,82.17117713694059,-105.11866566272518,692.4688899563739,82.17117713694059,High
APRIZESAT 10,-62.25098627775293,138.73147350916983,729.1527233665653,62.25098627775293,High
BRITE-CA1 (TORONTO),11.215835339033418,-26.94638710958898,604.8285753559177,11.215835339033418,Medium
DUCHIFAT-1,-8.224097799430737,35.53251759215733,488.525379665878,8.224097799430737,Low
NANOSATC-BR1,55.85070093934713,32.326494277006645,518.8409043681315,55.85070093934713,High
QB50P1,60.46229593105743,19.40376579827838,540.4855700198283,60.46229593105743,High
DTUSAT-2,44.008309491108314,166.38805228658407,541.1270355744579,44.008309491108314,Medium
QB50P2,-64.88610011878791,-168.69737010704657,564.9750204315685,64.88610011878791,High
PERSEUS-M2,-8.862925200421325,143.1970780369881,593.1821107493055,8.862925200421325,Low
PERSEUS-M1,64.31288038858767,120.17256864223386,589.103078558272,64.31288038858767,High
POLYITAN-1,-18.97264020555041,-164.5305112783071,511.5350712516885,18.97264020555041,Medium
TIGRISAT,-18.084232250664503,175.16862637323456,593.4134751065864,18.084232250664503,Medium
LEMUR-1,-72.86783242933804,151.24796768035722,618.2452089470513,72.86783242933804,High
AEROCUBE 6A,-24.13675512594936,-172.75576628253378,572.4758509483574,24.13675512594936,Medium
AEROCUBE 6B,-51.178063505086975,-179.7840179482401,591.6754960409808,51.178063505086975,High
SPOT 7,-19.33980820789277,85.68470896052929,699.5106071203634,19.33980820789277,Medium
CANX-4,60.06833006848941,-107.1772244779788,629.0882204279263,60.06833006848941,High
CANX-5,71.97606166532877,-95.16368948182593,631.7064619718869,71.97606166532877,High
OCO 2,51.86393218999111,-25.421097019675376,710.1389605479809,51.86393218999111,High
GONETS-M 8,21.564280959133455,38.56184071190288,1493.7122176230625,21.564280959133455,Medium
GONETS-M 9,19.909087924789006,-135.6914207449445,1507.9359563435248,19.909087924789006,Medium
GONETS-M 10,73.27201905720929,15.784369117966706,1516.7741939918062,73.27201905720929,High
METEOR-M 2,-19.603983078201725,4.343303549830622,832.658361420634,19.603983078201725,Medium
DX1,57.556641453962435,124.91240980799168,607.3640672051396,57.556641453962435,High
SKYSAT-B,30.01536139307153,-38.47649904947113,613.0583338038377,30.01536139307153,Medium
UKUBE-1,-4.478338595107175,165.33055299490306,552.7027642093411,4.478338595107175,Low
TECHDEMOSAT-1 (TDS-1),-37.50800494300257,-30.43587233752718,568.5785825397119,37.50800494300257,Medium
O3B FM3,0.054292839183240967,144.22383289971023,8061.507557067574,0.054292839183240967,Low
O3B FM7,-0.010149654992989757,-118.72234154832164,8064.075970660676,0.010149654992989757,Low
O3B FM6,0.029963199155765577,-167.49047429930832,8063.031949755311,0.029963199155765577,Low
O3B FM8,0.04218220942732027,96.23951899316218,8060.83834616479,0.04218220942732027,Low
ORBCOMM FM109,-6.80983391434263,90.0491075563295,699.3806418063665,6.80983391434263,Low
ORBCOMM FM107,-13.441140625166812,-69.82105392876574,701.2866985413802,13.441140625166812,Medium
NAVSTAR 71 (USA 256),29.46755350525478,168.72419399708664,20169.652016367265,29.46755350525478,Medium
ASIASAT 8 (AMOS-7),-0.0066128531725120135,105.30246679051265,35779.97121452976,0.0066128531725120135,Low
YAOGAN-20 01A,-7.508692580828844,-60.95024407567845,841.9268989776548,7.508692580828844,Low
YAOGAN-20 01B,-13.506308822144694,-63.18675997024233,855.5824630309874,13.506308822144694,Medium
YAOGAN-20 01C,17.125367787493143,-47.74794221735044,824.9235658594017,17.125367787493143,Medium
WORLDVIEW-3 (WV-3),73.98662466709055,-111.75508995765887,621.928228396926,73.98662466709055,High
GAOFEN-2,-39.53328049286146,74.323151639677,645.6162605171562,39.53328049286146,Medium
BRITE-PL2 (HEWELIUSZ),79.61363864970303,-101.12605412103204,612.4756229015094,79.61363864970303,High
GSAT0201 (GALILEO 5),-9.106003512725207,158.77175150901556,17396.839825330517,9.106003512725207,Low
GSAT0202 (GALILEO 6),4.042271158832382,-26.578343965848617,25803.394721519027,4.042271158832382,Low
LING QIAO,-53.142577624831404,-149.07359631651929,819.8126481445695,53.142577624831404,High
CHUANGXIN 1-04 (CX-1-04),-28.706459732661145,-156.02901441166162,814.7436907706191,28.706459732661145,Medium
ASIASAT 6,0.009357945800413091,119.90936445196999,35781.91390848165,0.009357945800413091,Low
YAOGAN-21,-46.96732714614497,-98.81801270598552,509.9138175148488,46.96732714614497,Medium
OPTUS 10,0.0643391659312077,155.99321101255848,35782.98241241222,0.0643391659312077,Low
MEASAT-3B,0.028821799995733564,91.52544969857193,35770.47319178675,0.028821799995733564,Low
LUCH (OLYMP-K 1),-0.8771284827247791,20.636279284371188,35744.90766238675,0.8771284827247791,Low
SJ-11-07,-18.284114249392594,94.35823782894737,685.2288302522835,18.284114249392594,Medium
HIMAWARI-8,0.021864411994653755,140.63801439560567,35784.63686647064,0.021864411994653755,Low
IRNSS-1C,-4.591737463180557,82.88483821925561,35741.310164172784,4.591737463180557,Low
INTELSAT 30 (IS-30),-0.02050386990869819,-95.0800093204446,35790.22138163813,0.02050386990869819,Low
ARSAT 1,-0.03249604672709959,-71.80543558581888,35795.02390543664,0.03249604672709959,Low
YAOGAN-22,64.06832948251004,-39.34780272701359,1214.5488885854932,64.06832948251004,High
EXPRESS-AM6,0.03172044122867708,53.00745450763338,35787.58613648713,0.03172044122867708,Low
SJ-11-08,10.653505282289695,158.83400130149752,685.3862696850991,10.653505282289695,Medium
NAVSTAR 72 (USA 258),37.97781454053502,-123.14148971735354,20120.679361084793,37.97781454053502,Medium
MERIDIAN 7,50.72740293333014,78.52645871991314,29525.67288663217,50.72740293333014,High
ASNARO,-71.56308962759796,79.97001954166775,536.3772058053221,71.56308962759796,High
YAOGAN-24,22.98422528224632,156.2253090870244,650.495615220017,22.98422528224632,Medium
COSMOS 2501 [GLONASS-K],-47.878018351897126,-147.69546096057314,19149.939760199206,47.878018351897126,Medium
GSAT-16,-0.05271185990245118,54.97424994400153,35777.09907748114,0.05271185990245118,Low
DIRECTV 14,-0.04001052118039584,-99.22621811699808,35786.098897659125,0.04001052118039584,Low
CBERS 4,12.388785695353965,88.34456530780118,775.8848454485781,12.388785695353965,Medium
YAOGAN-25 01A,48.340495366266744,-92.1305058935693,928.1796928918445,48.340495366266744,Medium
YAOGAN-25 01B,63.492113339983455,-38.18611050820236,1055.5651568326437,63.492113339983455,High
YAOGAN-25 01C,63.21915940703628,-26.693628287179546,1074.29365917993,63.21915940703628,High
YAMAL 401,0.04305393848194869,89.92274216792097,35788.84820293414,0.04305393848194869,Low
O3B FM10,-0.005548364119300077,48.2702622889958,8067.538611539976,0.005548364119300077,Low
O3B FM11,-0.011144863888586917,24.816123441631667,8065.607200711682,0.011144863888586917,Low
O3B FM12,-0.04390256870394774,-24.21551230836425,8067.780705186862,0.04390256870394774,Low
O3B FM9,-0.04460332933229709,-72.4138606156945,8068.21108628474,0.04460332933229709,Low
COSMOS 2502,40.17556482585996,36.91378602145086,908.2516045788658,40.17556482585996,Medium
YAOGAN-26,79.44439509824029,72.11494896561139,482.4148515284042,79.44439509824029,High
ASTRA 2G,-0.01975268075551681,28.12666017525526,35781.324305651826,0.01975268075551681,Low
FENGYUN 2G,-1.5836715487067925,99.61468910937063,35798.589302557164,1.5836715487067925,Low
MUOS-3,-3.806536820192614,-14.91502848899804,35760.41601205154,3.806536820192614,Low
SMAP,54.97561615205443,-161.93680770105718,690.2180588828035,54.97561615205443,High
INMARSAT 5-F2,-0.0401560767473954,-55.031098079787505,35787.427477810124,0.0401560767473954,Low
COSMOS 2503,82.15044261406824,154.22736601448491,552.8279546227561,82.15044261406824,High
ABS-3A,-0.0305192023282019,-3.01178177374772,35785.969231900184,0.0305192023282019,Low
EUTELSAT 115 WEST B,0.014805816955878333,-114.92938567825799,35786.90622311533,0.014805816955878333,Low
MMS 1,29.017946234227182,54.227087621686685,43471.14706530667,29.017946234227182,Medium
MMS 2,29.054917467733183,54.26948829699159,43465.21357562278,29.054917467733183,Medium
MMS 3,29.05533782059195,54.22742288521561,43483.273201414355,29.05533782059195,Medium
MMS 4,26.72461672011236,52.69800010384476,46952.70840380903,26.72461672011236,Medium
EXPRESS-AM7,-0.0069428808406386735,39.95666193820436,35784.24652250937,0.0069428808406386735,Low
NAVSTAR 73 (USA 260),23.41137526625411,-79.30604120742183,19920.37922850741,23.41137526625411,Medium
KOMPSAT-3A,-27.23150194388865,171.89725639066305,467.796189276691,27.23150194388865,Medium
GSAT0203 (GALILEO 7),10.770497040289692,41.12168073832296,23221.421788754655,10.770497040289692,Medium
GSAT0204 (GALILEO 8),-29.86144979216434,-124.01447765131566,23226.87011181936,29.86144979216434,Medium
IRNSS-1D,-1.313217398994351,111.34184289573214,35687.840407644355,1.313217398994351,Low
BEIDOU-3S IGSO-1S,45.05662059177759,104.74020739069998,35757.94867855501,45.05662059177759,Medium
GONETS-M 11,69.55210487309003,105.00332320593823,1492.842770856109,69.55210487309003,High
GONETS-M 12,-44.96591402534508,134.1665507261963,1521.5990454883852,44.96591402534508,Medium
GONETS-M 13,-11.392400692605221,-56.14673444696481,1497.6966135788227,11.392400692605221,Medium
COSMOS 2504,54.1428859464777,-147.81014019440738,1437.3368176877796,54.1428859464777,High
THOR 7,-0.015116524928907821,-0.6991465492563892,35793.98903613796,0.015116524928907821,Low
TURKMENALEM52E/MONACOSAT,-0.02373619540677205,51.9801788081926,35780.98947182646,0.02373619540677205,Low
DIRECTV 15,-0.023561513071359355,-102.85751004380711,35784.01211402359,0.023561513071359355,Low
SKY MEXICO-1,-0.026465544720586917,-78.75694914937087,35794.97155245713,0.026465544720586917,Low
SENTINEL-2A,31.01100597632752,102.76884110835243,792.3552791759433,31.01100597632752,Medium
COSMOS 2506,-50.226278941851454,61.43266431734983,727.052056698288,50.226278941851454,High
GAOFEN-8,-80.80680313746724,68.60715646869586,506.75852694866273,80.80680313746724,High
DMC3-FM1,78.53790157058738,34.60238489404135,627.4722328348586,78.53790157058738,High
DMC3-FM2,-26.350133529911393,81.2815576603257,626.646343169837,26.350133529911393,Medium
DMC3-FM3,-21.226644003591613,-104.03539627825904,615.4181783906608,21.226644003591613,Medium
CARBONITE 1 (CBNT-1),-72.44420277555923,-173.1651765613902,661.8932756354537,72.44420277555923,High
NAVSTAR 74 (USA 262),-54.324687211859356,-123.10246744288327,20309.7677380315,54.324687211859356,High
METEOSAT-11 (MSG-4),-2.1954765194539276,9.416242683370239,35781.46726053316,2.1954765194539276,Low
STAR ONE C4,-0.034700292161407804,-70.00029768716622,35797.667663724365,0.034700292161407804,Low
WGS F7 (USA 263),0.02890538398418902,174.9736039672097,35784.6210856965,0.02890538398418902,Low
BEIDOU-3S M2S,14.742323494721498,7.6009960943345956,21541.319286370926,14.742323494721498,Medium
BEIDOU-3S M1S,-22.084824514919912,-166.5703930711918,21541.08957817346,22.084824514919912,Medium
INTELSAT 34 (IS-34),-0.02601103248411991,-55.516420298449205,35786.11185364969,0.02601103248411991,Low
EUTELSAT 8 WEST B,-0.07176774943747634,-8.035176833918403,35795.59889511021,0.07176774943747634,Low
YAOGAN-27,68.95541982644613,47.92646157482402,1213.5485868158364,68.95541982644613,High
GSAT-6,-0.6787757419076869,82.54335676917664,35776.445015171186,0.6787757419076869,Low
INMARSAT 5-F3,0.026893742725971267,179.54650160115756,35787.38507442454,0.026893742725971267,Low
MUOS-4,-0.3655894186006368,74.93651099487197,35541.54148381961,0.3655894186006368,Low
GSAT0205 (GALILEO 9),-1.063673793732367,-86.59185768948802,23214.597538623297,1.063673793732367,Low
GSAT0206 (GALILEO 10),-34.26553002826954,122.49298129810268,23234.31107485056,34.26553002826954,Medium
TJS-1,0.026198579369707795,155.0582554364779,35773.46687310226,0.026198579369707795,Low
GAOFEN-9 01,-44.89128159560612,61.489679054508464,631.0701465053787,44.89128159560612,Medium
EXPRESS-AM8,-0.010643681366527748,-14.002876311708778,35784.93542219713,0.010643681366527748,Low
LILACSAT-2,66.78123829591325,-155.04385077062162,460.2122526588421,66.78123829591325,High
COSMOS 2507,51.448912390878114,164.64653724373932,1496.4887769379673,51.448912390878114,High
COSMOS 2508,-13.232591366979337,-9.003139308448432,1507.2764651078976,13.232591366979337,Medium
COSMOS 2509,-65.28552482797784,-170.58300274679215,1523.3965269633354,65.28552482797784,High
ASTROSAT,-2.0632395247304967,-159.64650164723167,621.9107049165513,2.0632395247304967,Low
LAPAN-A2 (IO-86),5.135942030728733,60.4796733348373,623.4734308438077,5.135942030728733,Low
BEIDOU-3S IGSO-2S,22.397839889719787,105.10227632621772,35590.67001530248,22.397839889719787,Medium
SKY MUSTER 1 (NBN1A),0.025293077369897502,140.25647305454635,35778.62528000481,0.025293077369897502,Low
ARSAT 2,-0.02685052486079609,-81.01030277081523,35794.809304026174,0.02685052486079609,Low
MORELOS 3,-1.082252272300114,-113.13753924704893,35789.62618643649,1.082252272300114,Low
LINGQIAO VIDEO A,71.17801596286756,-171.95467492143058,640.9169747716885,71.17801596286756,High
LINGQIAO VIDEO B,81.34024541583582,151.04367723515446,643.3699943858841,81.34024541583582,High
JILIN-1,2.1311630238354318,35.889465461972236,649.5821780300082,2.1311630238354318,Low
AEROCUBE 5C,28.064990590235613,-171.67314904779616,532.807143427228,28.064990590235613,Medium
AEROCUBE 7,28.214675115205775,177.44822043967702,526.5467859573595,28.214675115205775,Medium
FOX-1A (AO-85),-19.2848709831632,-132.62981200111437,498.49501177559017,19.2848709831632,Medium
SINOD-D 1,57.9246189727284,157.37419053637012,588.2893018988285,57.9246189727284,High
SNAP-3 ALICE,35.49511205972128,109.04366350750803,473.4237337673515,35.49511205972128,Medium
LMRST-SAT,10.40748253211439,-151.26986828771285,505.50850759100996,10.40748253211439,Medium
SNAP-3 EDDIE,-49.223730127553345,154.06209870764047,471.09489233368976,49.223730127553345,Medium
PROPCUBE 3,-2.920210456639689,-161.4429551085705,491.8262823747471,2.920210456639689,Low
BISONSAT,31.972876411418614,135.20620264754638,501.13283718155276,31.972876411418614,Medium
SNAP-3 JIMI,-10.458707129712149,-177.72473468071786,482.08846243626004,10.458707129712149,Medium
PROPCUBE 1 (FLORA),26.654738681142277,64.82806966880705,723.178878142768,26.654738681142277,Medium
SINOD-D 3,10.234905358079954,-145.27366915995162,505.2838142071494,10.234905358079954,Medium
APSTAR-9,0.04072915255446642,142.00273659898133,35780.34646022991,0.04072915255446642,Low
TURKSAT 4B,0.02401435777938606,49.974364444061266,35781.22336927605,0.02401435777938606,Low
TIANHUI 1-03,-7.833795667658761,170.2556403133877,354.2024295966755,7.833795667658761,Low
NAVSTAR 75 (USA 265),-41.20558821174963,-57.49375514225084,19922.017392911308,41.20558821174963,Medium
ZHONGXING-2C,0.04971192112851719,103.39422473074978,35798.365793515295,0.04971192112851719,Low
YAOGAN-28,-37.222155575043836,160.43465450054757,519.9295873327359,37.222155575043836,Medium
GSAT-15,-0.006119422467895413,93.47564710430368,35769.4440678315,0.006119422467895413,Low
BADR-7 (ARABSAT-6B),0.032686510529141094,26.001254945463575,35795.46589286664,0.032686510529141094,Low
COSMOS 2510,23.264311724333133,-112.36582861351197,13565.918900863093,23.264311724333133,Medium
LAOSAT 1,0.017719350253345766,128.5294779205355,35776.47348404954,0.017719350253345766,Low
TELSTAR 12V,-0.01965933308393179,-15.025103751026878,35793.22157055567,0.01965933308393179,Low
YAOGAN-29,36.64144569748881,-141.20890648141366,625.94551332912,36.64144569748881,Medium
ELEKTRO-L 2,-4.298212421677399,-14.700341117463331,35781.85223456293,4.298212421677399,Low
COSMOS 2513,-0.04000233945400427,80.2203242443267,35772.74362738512,0.04000233945400427,Low
VELOX-CI,12.632840269912851,-134.61592362114607,455.96884192081814,12.632840269912851,Medium
KENT RIDGE 1,3.8960716385063283,-149.65981083899905,496.7379939555975,3.8960716385063283,Low
TELEOS-1,1.4957127549088267,-28.04934533590972,282.39268583087636,1.4957127549088267,Low
DAMPE,75.50637875074946,51.755594081598545,495.9900842339528,75.50637875074946,High
GSAT0209 (GALILEO 12),45.68327615325437,-70.7120482811944,23241.687995584947,45.68327615325437,Medium
GSAT0208 (GALILEO 11),-12.443475259661495,145.0438065857582,23211.589031041924,12.443475259661495,Medium
ORBCOMM FM114,-34.58601374898637,-133.28256532782584,708.6626620311581,34.58601374898637,Medium
ORBCOMM FM110,-26.716857831851915,-21.418070201581312,707.8453213667689,26.716857831851915,Medium
ORBCOMM FM118,47.08024990370579,101.03192738093048,700.552759127969,47.08024990370579,Medium
ORBCOMM FM112,40.11554450473258,-33.17343301087219,702.9634527653534,40.11554450473258,Medium
ORBCOMM FM113,-2.753357793022496,98.30661378932737,700.2318393974142,2.753357793022496,Low
ORBCOMM FM108,43.10807248394546,-112.67985577599171,704.9243663143448,43.10807248394546,Medium
ORBCOMM FM117,-42.15134674569864,62.94444888413123,710.393624558128,42.15134674569864,Medium
ORBCOMM FM116,-36.77669759020164,-128.1903143541932,711.2960019851689,36.77669759020164,Medium
EXPRESS-AMU1,0.02136799516817844,36.060269784763946,35785.44318352957,0.02136799516817844,Low
GAOFEN-4,0.034361816398083375,105.65911649977798,35780.96549668518,0.034361816398083375,Low
BELINTERSAT-1,-0.013052235140788845,51.49574511444425,35794.25099890542,0.013052235140788845,Low
JASON-3,-57.88987168162634,97.13163000792447,1347.029528696364,57.88987168162634,High
IRNSS-1E,2.3770318536156188,111.13105253713324,35861.07077161941,2.3770318536156188,Low
EUTELSAT 9B,-0.07362619553296966,8.969076082089646,35783.65969183705,0.07362619553296966,Low
NAVSTAR 76 (USA 266),7.216864664880678,-38.53352859556126,20106.10785154706,7.216864664880678,Low
COSMOS 2514 [GLONASS-M],-38.5557687261968,-13.538096295280893,19155.074211164272,38.5557687261968,Medium
SENTINEL-3A,-30.785823306773583,84.94998411546426,814.395159746822,30.785823306773583,Medium
HORYU-4,30.24103909720377,-108.24582163371481,451.129037563939,30.24103909720377,Medium
SES-9,0.03639558866023196,108.29072258802393,35776.01211808312,0.03639558866023196,Low
EUTELSAT 65 WEST A,-0.062356704083942796,-65.19586203978643,35795.76504946029,0.062356704083942796,Low
IRNSS-1F,-3.974060780186534,32.53880232431262,35747.32084979567,3.974060780186534,Low
COSMOS 2515,-79.4645098759603,-29.28249341909306,589.8525883272847,79.4645098759603,High
BEIDOU-2 IGSO-6,9.229847284259744,89.47101090436148,35959.97986648995,9.229847284259744,Low
IRNSS-1G,-1.4344382144690317,129.53788145916994,35760.72285066227,1.4344382144690317,Low
JCSAT-2B,0.027723304196465376,154.00653580927067,35781.97979544393,0.027723304196465376,Low
YAOGAN-30 01,-4.079215053541632,-105.29138577555702,633.5391763653307,4.079215053541632,Low
GSAT0211 (GALILEO 14),-55.25856005752992,-177.79677865373742,23239.010540782867,55.25856005752992,High
GSAT0210 (GALILEO 13),50.28573798705674,37.654334354299685,23229.560181439,50.28573798705674,High
THAICOM 8,0.02011442157152373,78.5047037506678,35770.149858743236,0.02011442157152373,Low
ZIYUAN 3-2 (ZY 3-2),-80.80331166131771,46.32711420380568,531.2709001965078,80.80331166131771,High
COSMOS 2517 (GEO-IK 2),-58.31300422193907,18.039046744837325,966.0514685772225,58.31300422193907,High
INTELSAT 31 (IS-31),-0.03743222180876466,-95.07482724950675,35778.48162873285,0.03743222180876466,Low
BEIDOU-2 G7,0.010814351839088559,110.58425766541546,35742.48361668399,0.010814351839088559,Low
ABS-2A (MONGOLSAT-1),0.03949509227952051,74.71925182227389,35777.71051636103,0.03949509227952051,Low
EUTELSAT 117 WEST B,0.015364508983164887,-117.02620591128854,35787.03817670234,0.015364508983164887,Low
BRISAT,0.021962692137205458,150.51658509470045,35778.17079407203,0.021962692137205458,Low
ECHOSTAR 18,-0.04874857232064226,-61.38082020422055,35794.297519039006,0.04874857232064226,Low
CARTOSAT-2C,28.184845096791413,86.55562556302154,518.8564818674022,28.184845096791413,Medium
SKYSAT-C1,-18.651541044187045,67.748354211349,484.43058875118584,18.651541044187045,Medium
LAPAN-A3,-37.75275699353576,-147.44065574598022,486.76726052887886,37.75275699353576,Medium
BIROS,69.56598097948043,-148.0768332497198,393.1554068324023,69.56598097948043,High
M3MSAT,-39.03826156774192,-125.92162347832726,397.29403119578654,39.03826156774192,Medium
MUOS-5,-3.048043239919381,-104.3339227167251,35003.71350469056,3.048043239919381,Low
SJ 16-02,-8.770888678992218,-55.88880172892568,598.7143793972907,8.770888678992218,Low
TIANTONG-1 1,1.1346223228313335,101.31776390585728,35766.156576124835,1.1346223228313335,Low
GAOFEN-3,-58.26101228350434,-135.48831552465538,774.8485262363633,58.26101228350434,High
JCSAT-16,0.03279221224684211,143.94038725126794,35777.125657212375,0.03279221224684211,Low
QSS (MOZI),25.73619597530157,118.70285201452636,404.0219985989833,25.73619597530157,Medium
USA 270,-0.3230538950588036,118.01426580687398,36028.750796922934,0.3230538950588036,Low
USA 271,-0.34019624480920696,117.66618563750592,35752.27750777819,0.34019624480920696,Low
INTELSAT 36 (IS-36),0.023418812186329244,68.51181163096682,35782.12285273691,0.023418812186329244,Low
INSAT-3DR,-0.043977813795603254,74.09176286418166,35808.28951783693,0.043977813795603254,Low
PERUSAT 1,-75.65900665962299,-49.52519801601933,726.3050694750183,75.65900665962299,High
SKYSAT-C4,-29.275603523260653,53.308979211294584,466.4461158208744,29.275603523260653,Medium
SKYSAT-C5,-60.67710178105325,-94.26661808350727,483.54110647349063,60.67710178105325,High
SKYSAT-C2,4.026405948859328,55.73544607025306,472.0821795908529,4.026405948859328,Low
SKYSAT-C3,60.544208730557855,-126.89289299168635,462.2059178326211,60.544208730557855,High
PISAT,81.7971776270974,142.99597172400033,693.5798893257905,81.7971776270974,High
ALSAT 1B,12.618477000876906,43.87556333861758,663.865930197701,12.618477000876906,Medium
ALSAT 2B,-42.06783505141428,78.6394744015167,677.5352678105394,42.06783505141428,Medium
PATHFINDER 1,-70.229409591918,11.528572474157675,689.0993981689315,70.229409591918,High
SCATSAT 1,39.19015646469328,83.22756509643622,665.928329196347,39.19015646469328,Medium
GSAT-18,0.008417018483143456,73.93573578630384,35769.058622398275,0.008417018483143456,Low
SKY MUSTER 2 (NBN1B),0.027447683991294766,144.8007254147179,35779.82270721808,0.027447683991294766,Low
HIMAWARI-9,0.02089523057573758,140.76075039853086,35779.99537988834,0.02089523057573758,Low
SHIJIAN-17 (SJ-17),4.278107673236736,-178.07542243977502,35795.44074167268,4.278107673236736,Low
XPNAV-1,-35.79559242215847,54.38728191053854,219.58043851670084,35.79559242215847,Medium
CAS-2T & KS-1Q,-24.864540186612516,92.95760748837793,531.8315020302281,24.864540186612516,Medium
RAVAN,-60.04714173431689,-142.74120391815896,492.7462363857836,60.04714173431689,High
CELTEE 1,-12.388006973001195,40.73809677810432,527.8354859868833,12.388006973001195,Medium
OPTICUBE 04,57.63331525192417,17.285927388846037,559.360270382878,57.63331525192417,High
AEROCUBE 8D,-20.967941928322922,-142.9892295012176,523.4911257845014,20.967941928322922,Medium
AEROCUBE 8C,10.582531591096688,-140.56767452626647,515.3228413992848,10.582531591096688,Medium
PROMETHEUS 2-1,70.07986331029306,32.78411247261302,436.9215781032613,70.07986331029306,High
PROMETHEUS 2-3,18.52251721543011,52.15932469111809,425.86352958847795,18.52251721543011,Medium
YUNHAI-1 01,65.93630517113257,-167.9226326926103,788.3712352642605,65.93630517113257,High
GSAT0207 (GALILEO 15),-45.537187973928646,108.78856406751684,23222.515912521754,45.537187973928646,Medium
GSAT0212 (GALILEO 16),23.947164612753955,171.5364077080801,23214.506721254464,23.947164612753955,Medium
GSAT0213 (GALILEO 17),13.391717591646499,-35.84458280812201,23232.931423347844,13.391717591646499,Medium
GSAT0214 (GALILEO 18),52.347510251068464,-142.58812026634945,23238.138718566446,52.347510251068464,High
GOES 16,-0.041972658635662116,-104.70180815264243,35788.43240130907,0.041972658635662116,Low
TIANLIAN 1-04,-0.04631324449430299,176.51214778518496,35632.34691348594,0.04631324449430299,Low
GOKTURK 1A,-20.78841834042031,100.52325195876992,692.2800864391323,20.78841834042031,Medium
RESOURCESAT-2A,-81.38615311907986,2.9205498024614314,848.983450140251,81.38615311907986,High
WGS F8 (USA 272),0.02310330179820485,149.79397671299563,35786.81917373644,0.02310330179820485,Low
FENGYUN 4A,-0.04355172722380509,123.71784274277367,35814.91714741094,0.04355172722380509,Low
CYGFM05,0.713175121964655,39.42281979426032,439.8383130291269,0.713175121964655,Low
CYGFM04,17.25877762207452,-134.1761343251158,441.0862062749912,17.25877762207452,Medium
CYGFM02,0.6132259825246131,-159.27642887899987,436.7464679917261,0.6132259825246131,Low
CYGFM01,-33.029206371773334,111.65098598742001,444.87690446410693,33.029206371773334,Medium
CYGFM08,-16.656471875626433,-176.43597969445273,441.0102913050647,16.656471875626433,Medium
CYGFM07,-34.15863985749287,123.8695506645406,440.59620549720444,34.15863985749287,Medium
CYGFM03,-33.28746729833937,89.55428841585903,441.3651081078852,33.28746729833937,Medium
ECHOSTAR 19,-0.035737345892130505,-97.08218989651729,35790.31260763371,0.035737345892130505,Low
ARASE (ERG),11.858538681166062,-141.41125915301632,25762.91891664572,11.858538681166062,Medium
TANSAT,28.91423996486251,-177.4681261223021,683.2243060763379,28.91423996486251,Medium
YIJIAN,36.8530369974558,10.959677882616646,705.1103495919842,36.8530369974558,Medium
SPARK 1,-59.40101996030808,-13.241981192237088,734.5340592055277,59.40101996030808,High
SPARK 2,81.29086934351693,73.4227513789766,700.7731890000987,81.29086934351693,High
JCSAT-110A (JCSAT-15),0.04234260887573809,110.05743535091526,35782.92812025118,0.04234260887573809,Low
STAR ONE D1,-0.01432708869606418,-83.99634227606717,35794.74729408306,0.01432708869606418,Low
TJS-2,0.13889165004248105,66.47043017274677,35784.202244510736,0.13889165004248105,Low
JILIN-1 03,-80.65946053970241,-17.24776674370464,506.1443823445949,80.65946053970241,High
KAIDUN 1,41.034348336076135,57.49125564049979,388.3469368549951,41.034348336076135,Medium
IRIDIUM 106,-82.33163217958047,-101.1258056469705,807.8878439475437,82.33163217958047,High
IRIDIUM 103,-17.903362894696837,-74.66898065476718,785.6401898137485,17.903362894696837,Medium
IRIDIUM 109,-50.52662986683823,-77.81710923301262,798.7485670443392,50.52662986683823,High
IRIDIUM 102,66.59583193969486,98.1560847102924,787.8181531688834,66.59583193969486,High
IRIDIUM 105,-83.2567826948218,106.89807089254849,807.9615273368713,83.2567826948218,High
IRIDIUM 104,47.71412977963355,-69.54002922512245,784.2477394575843,47.71412977963355,Medium
IRIDIUM 114,14.941177813849942,-72.54585439107444,779.700910712337,14.941177813849942,Medium
IRIDIUM 108,-49.20246857698985,79.0000143547047,798.202714901526,49.20246857698985,Medium
IRIDIUM 112,79.87057827667311,-53.12379213122407,789.5880008568422,79.87057827667311,High
IRIDIUM 111,34.02510647829975,103.99500903682592,781.298545601598,34.02510647829975,Medium
SBIRS GEO-4 (USA 273),1.271264255982997,119.15476015702497,35858.38524740296,1.271264255982997,Low
HISPASAT 36W-1,-0.027724240622947833,-36.00879941049049,35790.94089992077,0.027724240622947833,Low
TELKOM 3S,0.03740199874201536,118.00410424722958,35776.03820517103,0.03740199874201536,Low
INTELSAT 32E (IS-32E),-0.03443846792641167,-43.19767684063626,35785.6793429418,0.03443846792641167,Low
CARTOSAT-2D,-26.833100251639078,-93.81503427163008,521.256408746529,26.833100251639078,Medium
SENTINEL-2B,-5.765719212616514,96.67268074351013,792.8761713072446,5.765719212616514,Low
ECHOSTAR 23,-0.035816276508645675,-109.89736220302024,35792.083983669625,0.035816276508645675,Low
WGS F9 (USA 275),-0.019350216912275002,-11.991285513121593,35785.626091425765,0.019350216912275002,Low
SES-10,-0.03460186380542378,-66.88587249762915,35797.714710363165,0.03460186380542378,Low
CHINASAT 16 (SJ-13),0.007651806612238707,110.51724282862847,35801.48962170463,0.007651806612238707,Low
KOREASAT 7,0.04446309004303575,115.89672505229517,35781.78863488558,0.04446309004303575,Low
SGDC,-0.02307067271943086,-74.86048440354202,35794.267170514075,0.02307067271943086,Low
GSAT-9,0.02232986889976295,97.31441173514537,35777.83710890553,0.02232986889976295,Low
INMARSAT 5-F4,0.025885934173254046,56.483194726161855,35784.57477457466,0.025885934173254046,Low
SES-15,-0.004669576668558618,-129.1567355967369,35788.15459734381,0.004669576668558618,Low
COSMOS 2518,-47.59385395188415,-55.36291260411978,1679.9368199612366,47.59385395188415,Medium
QZS-2 (MICHIBIKI-2),-14.181456292340314,128.32805109904112,34329.23366422599,14.181456292340314,Medium
VIASAT-2,-0.03267473645492408,-69.92942924792779,35787.079169233904,0.03267473645492408,Low
EUTELSAT 172B,0.013206260938068839,172.0143329318439,35786.50511018447,0.013206260938068839,Low
GSAT-19,-0.022668319789307653,47.806079431825026,35785.319659292545,0.022668319789307653,Low
ECHOSTAR 21,-0.18632417561440104,10.216066414105718,35787.43223729684,0.18632417561440104,Low
HXMT (HUIYAN),-35.94065721239356,5.556155633346854,526.0291603871826,35.94065721239356,Medium
ZHUHAI-1 02 (CAS-4B),41.73802674712352,114.56716192848788,395.57084331749536,41.73802674712352,Medium
NUSAT-3 (MILANESAT),-30.707314490920137,-75.04196945845604,273.3567519096682,30.707314490920137,Medium
ZHUHAI-1 01 (CAS-4A),-43.01091676023667,-80.17900495113524,373.0981888302363,43.01091676023667,Medium
CARTOSAT-2E,-67.5936827968375,63.62626189517995,534.0969356935811,67.5936827968375,High
BULGARIASAT-1,0.010047862910472988,1.873486231308947,35793.36128700089,0.010047862910472988,Low
IRIDIUM 113,-69.195611673787,-10.163683893266251,805.1800967442975,69.195611673787,High
IRIDIUM 123,35.26945944467061,-165.65805866171382,781.2929988761365,35.26945944467061,Medium
IRIDIUM 120,-77.53923060622371,143.70529634345155,807.0568272270335,77.53923060622371,High
IRIDIUM 115,-69.02625018512929,-10.478981903312032,775.8079571954802,69.02625018512929,High
IRIDIUM 118,-51.784879491792665,16.365388628780885,799.1483492052394,51.784879491792665,High
IRIDIUM 117,46.44718797734507,7.988044178628411,783.6029487989422,46.44718797734507,Medium
IRIDIUM 126,2.434834939332799,-168.03742273474788,780.4075694305455,2.434834939332799,Low
IRIDIUM 124,-52.926793046225626,-46.75422121429073,769.9565238801775,52.926793046225626,High
IRIDIUM 128,50.309453632029644,-132.3958357471031,784.2375002842605,50.309453632029644,High
IRIDIUM 121,-83.39088084430767,44.55018146811117,807.8253003375288,83.39088084430767,High
HELLAS-SAT 3,-0.04736131114838798,38.943334357642556,35772.87367239239,0.04736131114838798,Low
GSAT-17,-0.03718221751439781,93.51042848544199,35786.26252219366,0.03718221751439781,Low
INTELSAT 35E (IS-35E),-0.013149929717940196,-34.51835019183796,35794.51373740197,0.013149929717940196,Low
KANOPUS-V-IK,-76.26453438376056,141.75430490473505,526.3484125519975,76.26453438376056,High
NORSAT 1,22.095831495594826,12.851729593524029,545.388945653149,22.095831495594826,Medium
NORSAT 2,21.291155729346595,17.050846375923925,533.5721388047316,21.291155729346595,Medium
TECHNOSAT,-57.559797841555216,22.8469914088893,575.6373867582289,57.559797841555216,High
FLYING LAPTOP,-76.42002584609165,157.66464008728855,594.1405750273693,76.42002584609165,High
WNISAT 1R,80.57432461455888,-41.19545581792294,586.7949208243446,80.57432461455888,High
LEMUR-2-GREENBERG,-70.8850155039924,45.73302662795232,533.2135618144924,70.8850155039924,High
LEMUR-2-ANDIS,49.3668651155695,-147.81624118339124,519.1176871601702,49.3668651155695,Medium
LEMUR-2-MONSON,-71.66530245296713,-178.80156413793398,539.92541176839,71.66530245296713,High
LEMUR-2-FURIAUS,27.898323436425617,-153.11599481608084,523.9053554135689,27.898323436425617,Medium
LEMUR-2-PETERG,47.64734885019978,-145.20484862234363,516.6666072738597,47.64734885019978,Medium
LEMUR-2-DEMBITZ,-82.63126410699,109.9312906591642,538.3411508606423,82.63126410699,High
NANOACE,1.2749974810466258,20.822727857282203,527.7476755105007,1.2749974810466258,Low
LEMUR-2-ZACHARY,-68.23891396683408,47.676077739808434,513.4675288092213,68.23891396683408,High
CORVUS BC2,-56.13484086188797,26.06300822934053,570.4679348104737,56.13484086188797,High
CORVUS BC1,26.511764122816864,11.86004131286298,562.3447652100391,26.511764122816864,Medium
COSMOS 2520,-0.023927208505486984,45.07754573594887,35786.612723913655,0.023927208505486984,Low
TDRS 13,-2.5370622774329297,-11.671287776223211,35848.358229167396,2.5370622774329297,Low
QZS-3 (MICHIBIKI-3),-0.03248146386221701,126.98169139048457,35774.89342589744,0.03248146386221701,Low
FORMOSAT-5,21.90981875130389,-83.06904095455437,729.4339082241605,21.90981875130389,Medium
ORS-5 SENSORSAT,-0.04602461590756472,14.538205970606272,559.9132369232842,0.04602461590756472,Low
AMAZONAS 5,-0.05345996524684583,-61.030584420495934,35795.38857065124,0.05345996524684583,Low
COSMOS 2522 [GLONASS-M],62.391180288918626,-45.02063208258694,19164.491557277026,62.391180288918626,High
ASIASAT 9,0.024755156391905415,122.10210583378755,35777.01158997901,0.024755156391905415,Low
YAOGAN-30 02A,27.268624743114966,-45.87673734912521,564.7385713024561,27.268624743114966,Medium
YAOGAN-30 02B,12.91121762473104,-159.5466954680535,565.3073929196014,12.91121762473104,Medium
YAOGAN-30 02C,4.330383987473543,-8.91724809639792,557.745568347547,4.330383987473543,Low
INTELSAT 37E (IS-37E),-0.007772379990453036,-18.01145582422922,35795.98737926274,0.007772379990453036,Low
BSAT-4A,0.03911617385152611,109.82933190772935,35767.2359561758,0.03911617385152611,Low
VRSS-2,-58.37951309206904,-96.38549836788049,646.2084238839616,58.37951309206904,High
IRIDIUM 133,-66.64684284349573,51.72081447859038,804.5283668972951,66.64684284349573,High
IRIDIUM 100,-80.02456582867035,-157.53182999640325,807.6312378360632,80.02456582867035,High
IRIDIUM 122,82.24148296799954,-109.33796114688236,789.5428283120021,82.24148296799954,High
IRIDIUM 129,-47.96404831100605,-140.6042908642451,797.545338283001,47.96404831100605,Medium
IRIDIUM 119,64.04709600822478,35.98259718156936,787.1637180636989,64.04709600822478,High
IRIDIUM 107,17.57170010249297,-135.4743345428199,779.4440901546586,17.57170010249297,Medium
IRIDIUM 132,-15.29731501163656,-137.60870096153613,784.3391437451825,15.29731501163656,Medium
IRIDIUM 136,-1.4210066299446307,43.46581993854825,780.8762553741207,1.4210066299446307,Low
IRIDIUM 139,31.417952219248907,41.24208433834822,780.9068061536736,31.417952219248907,Medium
IRIDIUM 125,-34.21178223350685,45.925166355878034,791.5267100078745,34.21178223350685,Medium
QZS-4 (MICHIBIKI-4),38.77550204751627,139.40581739687053,38855.71462529012,38.77550204751627,Medium
SES-11 (ECHOSTAR 105),-0.026985223470992286,-104.93543946577498,35795.10158835495,0.026985223470992286,Low
SENTINEL-5P,-50.280064277518015,-47.732296721567046,846.9894484359504,50.280064277518015,High
KOREASAT 5A,0.035720194455186816,113.15511188092228,35780.15556191616,0.035720194455186816,Low
COSMOS 2523,79.23115237627275,-177.17472893007766,562.3913011250398,79.23115237627275,High
SKYSAT-C11,36.39634310421076,162.35655503380704,451.82836149958257,36.39634310421076,Medium
SKYSAT-C10,3.719316657486117,153.6496163141266,474.84569731330174,3.719316657486117,Low
SKYSAT-C9,-43.80410513666716,144.80516730128946,488.8726549528725,43.80410513666716,Medium
SKYSAT-C8,-23.16800417665232,-24.724707410090467,479.2074353889617,23.16800417665232,Medium
SKYSAT-C7,79.01660306742501,-68.5345122303148,479.39470748704434,79.01660306742501,High
SKYSAT-C6,-81.92263637185899,39.62459869191455,505.1527269235225,81.92263637185899,High
BEIDOU-3 M1,28.154181026415067,-83.16381480635593,21559.289374249667,28.154181026415067,Medium
BEIDOU-3 M2,-5.959040129865521,-58.349322176022476,21552.70301883402,5.959040129865521,Low
MOHAMMED VI-A,54.825535187719915,-96.28431570895262,646.8840672673018,54.825535187719915,High
FENGYUN 3D,-64.00219395733657,-175.0179027062505,851.953311177186,64.00219395733657,High
HEAD-1,56.53604050208844,-167.93883442182008,806.6843686395611,56.53604050208844,High
NOAA 20 (JPSS-1),14.52912707226287,-36.74346605832066,829.4307574076317,14.52912707226287,Medium
MIRATA,-34.0825499164031,102.31925948888082,462.55999958694355,34.0825499164031,Medium
MAKERSAT 0,61.81443571747174,-85.22947841300892,436.2129918210648,61.81443571747174,High
RADFXSAT (FOX-1B),-32.27705953995026,-111.5727988190405,478.35787691715143,32.27705953995026,Medium
JILIN-1 04,26.043180748138262,124.23678876556829,471.1002565297537,26.043180748138262,Medium
JILIN-1 05,-74.44653423459825,92.39308817953865,511.9882730525147,74.44653423459825,High
JILIN-1 06,-3.032539038542349,117.47740710260604,484.95417873890625,3.032539038542349,Low
YAOGAN-30 03A,-27.504729572994854,14.216380136285641,570.99008490669,27.504729572994854,Medium
YAOGAN-30 03B,29.702940725852663,115.60986434772954,569.6674929987503,29.702940725852663,Medium
YAOGAN-30 03C,-1.8698240181109116,-115.95186740735704,567.136746439674,1.8698240181109116,Low
COSMOS 2524,25.467140144823414,-128.98712670253013,907.0083511051267,25.467140144823414,Medium
LKW-1,-31.91425013284689,-105.16499333562204,509.70646911803556,31.91425013284689,Medium
ALCOMSAT 1,1.991984276800132e-05,-24.819485035810764,35791.04934530055,1.991984276800132e-05,Low
